"EstablishmentID","InspectionID","EstablishmentName","PlaceName","Address","Address2","City","State","Zip","TypeDescription","Latitude","Longitude","InspectionDate","Score","Grade","NameSearch","Intersection"
"73002","1386666","JU-LI CREATIONS","","8621 HI VIEW LN","","LOUISVILLE","KY","40272","CATERERS","38.1212000",".0000000","2018-06-08 00:00:00","100","A","JU-LI CREATIONS",""
"41292","1386726","OLE HICKORY PIT BAR B Q","","6106 OLD SHEPHERDSVILLE RD","","LOUISVILLE","KY","40228","FOOD SERVICE","38.1628000","-85.6604000","2018-05-21 00:00:00","","","OLE HICKORY PIT BAR B Q",""
"41292","1386727","OLE HICKORY PIT BAR B Q","","6106 OLD SHEPHERDSVILLE RD","","LOUISVILLE","KY","40228","FOOD SERVICE","38.1628000","-85.6604000","2018-06-05 00:00:00","","","OLE HICKORY PIT BAR B Q",""
"90821","1386729","SONIC DRIVE-IN","","8600 AMBROSSE LN","","LOUISVILLE","KY","40299","FOOD SERVICE","38.1961000","-85.6030000","2018-06-07 00:00:00","","","SONIC DRIVE-IN",""
"75560","1386745","PROOF ON MAIN","","702 W MAIN ST","","LOUISVILLE","KY","40202","FOOD SERVICE","38.2570000","-85.7618000","2018-06-12 00:00:00","100","A","PROOF ON MAIN",""
"99415","1386756","DUNKIN DONUTS","","4611 DIXIE HWY","","LOUISVILLE","KY","40216","FOOD SERVICE","38.1775000","-85.8189000","2018-06-04 00:00:00","","","DUNKIN DONUTS",""
"88273","1386760","DAIRY QUEEN","","400 FAIRDALE RD","","FAIRDALE","KY","40118","FOOD SERVICE","38.1050000","-85.7586000","2018-06-05 00:00:00","","","DAIRY QUEEN",""
"103394","1386771","GRAVELY BREWING COMPANY","","514 BAXTER AVE","","LOUISVILLE","KY","40204","FOOD SERVICE","38.2470000","-85.7303000","2018-06-06 00:00:00","","","GRAVELY BREWING COMPANY",""
"38244","1386779","PIZZA HUT #013426","","2733 W BROADWAY","","LOUISVILLE","KY","40211","FOOD SERVICE","38.2498000","-85.7980000","2018-06-06 00:00:00","","","PIZZA HUT #013426",""
"78337","1386803","MOCKINGBIRD VALLEY SOCCER CLUB","","3000 MELLWOOD AVE","","LOUISVILLE","KY","40207","STATIONARY RESTRICTED CONCESSON","38.2738000","-85.6954000","2018-05-21 00:00:00","","","MOCKINGBIRD VALLEY SOCCER CLUB",""
"80098","1386808","WALMART #3610","","7100 RAGGARD RD","","LOUISVILLE","KY","40216","RETAIL-FOOD  10,001 SQ FT OR OVER","38.1715000","-85.8703000","2018-06-01 00:00:00","","","WALMART #3610",""
"92913","1386809","B QUICK FOODMART","","2119 UPPER HUNTERS TRACE","","LOUISVILLE","KY","40216","PRE-PACKAGED RETAIL","38.1680000","-85.8367000","2018-06-01 00:00:00","","","B QUICK FOODMART",""
"81888","1386811","BURGER BOY","","1450 S BROOK ST","","LOUISVILLE","KY","40208","FOOD SERVICE","38.2266000","-85.7551000","2018-06-05 00:00:00","","","BURGER BOY",""
"94491","1386879","TACO LUCHADOR","","938 BAXTER AVE","","LOUISVILLE","KY","40204","FOOD SERVICE","38.2413000","-85.7251000","2018-05-24 00:00:00","","","TACO LUCHADOR",""
"90128","1380419","QDOBA #2632","","312 S 4TH ST","","LOUISVILLE","KY","40202","FOOD SERVICE","38.2534000","-85.7572000","2018-05-18 00:00:00","94","A","QDOBA #2632",""
"88441","1380420","POTTER'S HOUSE CHILDCARE ENRICHMENT","","314 S WENZEL ST","","LOUISVILLE","KY","40204","FOOD SERVICE (DAY CARE / CHILD CARE CENTER","38.2508000","-85.7345000","2018-05-18 00:00:00","93","A","POTTER'S HOUSE CHILDCARE ENRICHMENT",""
"93095","1380462","MANSION MILLIONAIRE 6","","700 CENTRAL AVE","","LOUISVILLE","KY","40208","FOOD SERVICE","38.2023000","-85.7701000","2018-05-18 00:00:00","100","A","MANSION MILLIONAIRE 6",""
"104880","1380527","STARTING GATE PANTRY 6","","700 CENTRAL AVE","","LOUISVILLE","KY","40208","FOOD SERVICE","38.2042000","-85.7716000","2018-05-18 00:00:00","100","A","STARTING GATE PANTRY 6",""
"104879","1380529","STARTING GATE PANTRY 5","","700 CENTRAL AVE","","LOUISVILLE","KY","40208","FOOD SERVICE","38.2042000","-85.7716000","2018-05-18 00:00:00","98","A","STARTING GATE PANTRY 5",""
"74258","1382785","CUBA FOOD MART","","5422 NEW CUT RD","","LOUISVILLE","KY","40214","RETAIL-FOOD  10,000 SQ FT OR LESS","38.1492000","-85.7765000","2018-05-29 00:00:00","100","A","CUBA FOOD MART",""
"88495","1382791","SUBWAY","","5469 NEW CUT RD","","LOUISVILLE","KY","40214","FOOD SERVICE","38.1463000","-85.7751000","2018-05-29 00:00:00","99","A","SUBWAY",""
"34319","1382801","IN & OUT DAIRY MART","","2329 PORTLAND AVE","","LOUISVILLE","KY","40212","RETAIL-FOOD  10,000 SQ FT OR LESS","38.2702000","-85.7871000","2018-05-29 00:00:00","100","","IN & OUT DAIRY MART",""
"99404","1382820","LIFE BAR, LLC","","3046 BARDSTOWN RD","","LOUISVILLE","KY","40205","FOOD SERVICE","38.2130000","-85.1738000","2018-05-29 00:00:00","100","A","LIFE BAR, LLC",""
"48150","1384698","COURTYARD CAFE BY MASTERSONS","","680 S 4TH ST","","LOUISVILLE","KY","40202","FOOD SERVICE","38.2466000","-85.7585000","2018-06-04 00:00:00","96","A","COURTYARD CAFE BY MASTERSONS",""
"104809","1386918","TACO BELL","","5414 NEW CUT RD","","LOUISVILLE","KY","40214","FOOD SERVICE","38.1498000","-85.7766000","2018-05-22 00:00:00","","","TACO BELL",""
"34237","1386953","SPEEDWAY #9653","","1422 POPLAR LEVEL RD","","LOUISVILLE","KY","40217","RETAIL-FOOD  10,000 SQ FT OR LESS","38.2194000","-85.7291000","2018-06-04 00:00:00","","","SPEEDWAY #9653",""
"62821","1387009","UPPER HIGHLANDS SWIM CLUB","","2411 PARKDALE AVE","","LOUISVILLE","KY","40220","FOOD SERVICE","38.2356000","-85.6208000","2018-06-12 00:00:00","97","A","UPPER HIGHLANDS SWIM CLUB",""
"105352","1387065","AGAPE CHILD DEVELOPMENT CENTER","","3620 W BROADWAY","","LOUISVILLE","KY","40211","FOOD SERVICE (DAY CARE / CHILD CARE CENTER","38.2496000","-85.8119000","2018-06-06 00:00:00","99","","AGAPE CHILD DEVELOPMENT CENTER",""
"34237","1382933","SPEEDWAY #9653","","1422 POPLAR LEVEL RD","","LOUISVILLE","KY","40217","RETAIL-FOOD  10,000 SQ FT OR LESS","38.2194000","-85.7291000","2018-05-29 00:00:00","99","","SPEEDWAY #9653",""
"33742","1382996","DOMINO'S PIZZA #1435","","7924 FEGENBUSH LN","","LOUISVILLE","KY","40228","FOOD SERVICE","38.1375000","-85.6137000","2018-05-11 00:00:00","","","DOMINO'S PIZZA #1435",""
"78337","1384848","MOCKINGBIRD VALLEY SOCCER CLUB","","3000 MELLWOOD AVE","","LOUISVILLE","KY","40207","STATIONARY RESTRICTED CONCESSON","38.2738000","-85.6954000","2018-05-21 00:00:00","","","MOCKINGBIRD VALLEY SOCCER CLUB",""
"78337","1384853","MOCKINGBIRD VALLEY SOCCER CLUB","","3000 MELLWOOD AVE","","LOUISVILLE","KY","40207","STATIONARY RESTRICTED CONCESSON","38.2738000","-85.6954000","2018-05-29 00:00:00","","","MOCKINGBIRD VALLEY SOCCER CLUB",""
"84446","1384857","LOU. METRO YOUTH CENTER C/O MICHELLE SHARP","","720 W JEFFERSON ST","","LOUISVILLE","KY","40202","CONFINEMENT FACILITY FOOD SERVICE","38.2544000","-85.7623000","2018-06-01 00:00:00","","","LOU. METRO YOUTH CENTER C/O MICHELLE SHARP",""
"105399","1388430","TORTILLERIA Y ROSTICERIA LA OAXAQUENA","","5410 DEL MARIA PLACE","","LOUISVILLE","KY","40291","FOOD SERVICE","38.1693000","-85.6077000","2018-06-07 00:00:00","100","","TORTILLERIA Y ROSTICERIA LA OAXAQUENA",""
"83104","1380855","JASON'S DELI","","4600 SHELBYVILLE RD","","LOUISVILLE","KY","40207","FOOD SERVICE","38.2503000","-85.6294000","2018-05-21 00:00:00","100","A","JASON'S DELI",""
"81481","1380961","HARDEE'S","","3459 TAYLOR BLVD","","LOUISVILLE","KY","40215","FOOD SERVICE","38.1972000","-85.7828000","2018-05-21 00:00:00","98","A","HARDEE'S",""
"102588","1381019","MANLEY'S MARATHON","","7205 MANSLICK RD","","LOUISVILLE","KY","40214","RETAIL-FOOD  10,000 SQ FT OR LESS","38.1556000","-85.8014000","2018-05-21 00:00:00","96","","MANLEY'S MARATHON",""
"32382","1381031","SPEEDWAY #9686","","6821 SOUTHSIDE AVE","","LOUISVILLE","KY","40214","RETAIL-FOOD  10,000 SQ FT OR LESS","38.1588000","-85.7643000","2018-05-21 00:00:00","93","","SPEEDWAY #9686",""
"102884","1381064","QUILLS COFFEE","","802 E MAIN ST","","LOUISVILLE","KY","40206","RETAIL-FOOD  10,000 SQ FT OR LESS","38.2544000","-85.7377000","2018-05-21 00:00:00","99","A","QUILLS COFFEE",""
"102884","1381065","QUILLS COFFEE","","802 E MAIN ST","","LOUISVILLE","KY","40206","RETAIL-FOOD  10,000 SQ FT OR LESS","38.2544000","-85.7377000","2018-05-21 00:00:00","100","","QUILLS COFFEE",""
"100981","1383052","ALL KIDS MATTER CHILDCARE","","2922 DIXIE HWY","","LOUISVILLE","KY","40216","FOOD SERVICE (DAY CARE / CHILD CARE CENTER","38.2083000","-85.7990000","2018-05-29 00:00:00","100","A","ALL KIDS MATTER CHILDCARE",""
"101786","1383053","WHITE CASTLE  #13","","3701 S 7TH ST","","LOUISVILLE","KY","40216","FOOD SERVICE","38.1967000","-85.7991000","2018-05-29 00:00:00","96","A","WHITE CASTLE  #13",""
"101735","1384939","SUBWAY #11525","","4945 BROWNSBORO RD","","LOUISVILLE","KY","40222","FOOD SERVICE","38.2833000","-85.6298000","2018-06-04 00:00:00","","","SUBWAY #11525",""
"86218","1385040","SUNERGOS COFFEE","","306 W WOODLAWN AVE","","LOUISVILLE","KY","40214","FOOD SERVICE","38.1816000","-85.7664000","2018-06-05 00:00:00","98","A","SUNERGOS COFFEE",""
"96332","1385047","MI PREFERIDA","","8104 NATIONAL TURNPIKE","","LOUISVILLE","KY","40214","RETAIL-FOOD  10,000 SQ FT OR LESS","38.1336000","-85.7526000","2018-06-05 00:00:00","95","A","MI PREFERIDA",""
"102648","1387088","DINING WITH GABOR AND MORE","","1812 W MUHAMMAD ALI BLVD","","LOUISVILLE","KY","40203","CATERERS","38.2535000","-85.7816000","2018-06-12 00:00:00","99","A","DINING WITH GABOR AND MORE",""
"105354","1387137","BEE HIVE HOMES OF SMYRNA","","8800 SMYRNA PKWY","","LOUISVILLE","KY","40228","FOOD SERVICE (HOSPITAL / NURSING HOME","38.1217000","-85.6442000","2018-06-04 00:00:00","89","","BEE HIVE HOMES OF SMYRNA",""
"105357","1387222","LOLLI & POPS","","7900 SHELBYVILLE RD","","LOUISVILLE","KY","40222","PRE-PACKAGED RETAIL","38.2470000","-85.6099000","2018-06-04 00:00:00","100","","LOLLI & POPS",""
"105036","1381225","RABBIT HOLE DISTILLERY","","711 E JEFFERSON ST","","LOUISVILLE","KY","40202","FOOD SERVICE","38.2523000","-85.7394000","2018-05-22 00:00:00","100","A","RABBIT HOLE DISTILLERY",""
"35139","1381227","KROGER L-346","","3039 BRECKENRIDGE LN","","LOUISVILLE","KY","40220","RETAIL-FOOD  10,001 SQ FT OR OVER","38.2177000",".0000000","2018-05-22 00:00:00","100","A","KROGER L-346",""
"93247","1381288","SUPER USA #101","","2912 BROWNSBORO RD","","LOUISVILLE","KY","40206","RETAIL-FOOD  10,000 SQ FT OR LESS","38.2604000","-85.6874000","2018-05-21 00:00:00","93","","SUPER USA #101",""
"31586","1381296","RIVER'S EDGE","","6301 BASS RD","","PROSPECT","KY","40059","FOOD SERVICE (HOSPITAL / NURSING HOME","38.3508000","-85.6267000","2018-05-22 00:00:00","100","A","RIVER'S EDGE",""
"98639","1381324","PEKING CITY EXPRESS","","4000 DUTCHMANS LN","","LOUISVILLE","KY","40207","FOOD SERVICE","38.2334000","-85.6348000","2018-05-22 00:00:00","100","A","PEKING CITY EXPRESS",""
"36536","1383266","SPEEDWAY #9662","","4300 CRITTENDEN DR","","LOUISVILLE","KY","40209","RETAIL-FOOD  10,000 SQ FT OR LESS","38.1930000","-85.7513000","2018-05-30 00:00:00","97","","SPEEDWAY #9662",""
"99662","1383267","JB'S PUB","","307 CENTRAL AVE","","LOUISVILLE","KY","40208","FOOD SERVICE","38.2051000","-85.7646000","2018-05-30 00:00:00","99","A","JB'S PUB",""
"68059","1383269","WALMART #3294","","7101 CEDAR SPRINGS BLVD","","LOUISVILLE","KY","40291","RETAIL-FOOD  10,001 SQ FT OR OVER","38.1427000","-85.5872000","2018-05-30 00:00:00","100","","WALMART #3294",""
"92712","1383270","STONY BROOK CHILD CARE","","5206 ST. GABRIEL LN","","LOUISVILLE","KY","40291","FOOD SERVICE (DAY CARE / CHILD CARE CENTER","38.1708000","-85.6020000","2018-05-30 00:00:00","97","A","STONY BROOK CHILD CARE",""
"60707","1383271","WHITE CASTLE #28","","7200 CEDAR SPRINGS BLVD","","LOUISVILLE","KY","40291","FOOD SERVICE","38.1446000","-85.5852000","2018-05-30 00:00:00","100","A","WHITE CASTLE #28",""
"93324","1383273","GITA'S CATERING AT HOLIDAY INN","","6551 PARAMOUNT PARK DR","","LOUISVILLE","KY","40213","CATERERS","38.1541000","-85.7122000","2018-05-30 00:00:00","96","A","GITA'S CATERING AT HOLIDAY INN",""
"84451","1383274","#52 SPORTS BAR & KITCHEN","","6551 PARAMOUNT PARK DR","","LOUISVILLE","KY","40213","FOOD SERVICE","38.1550000","-85.7126000","2018-05-30 00:00:00","96","A","#52 SPORTS BAR & KITCHEN",""
"89684","1385056","SUBWAY","","10512 FISCHER PARK DR","","LOUISVILLE","KY","40241","FOOD SERVICE","38.2966000","-85.5578000","2018-06-05 00:00:00","98","A","SUBWAY",""
"35172","1385058","STANDARD CC POOL SNACK BAR","","8208 STANDARD CLUB LN","","LOUISVILLE","KY","40241","FOOD SERVICE","38.2931000","-85.5977000","2018-06-05 00:00:00","97","A","STANDARD CC POOL SNACK BAR",""
"84135","1385059","WOODS OF ST THOMAS CLUB","","6701 FALLEN LEAF CIRCLE","","LOUISVILLE","KY","40241","FOOD SERVICE","38.2915000","-85.6243000","2018-06-05 00:00:00","99","A","WOODS OF ST THOMAS CLUB",""
"86330","1385061","ZOE'S KITCHEN","","4126 SUMMIT PLAZA DR","","LOUISVILLE","KY","40241","FOOD SERVICE","38.3063000","-85.5774000","2018-06-05 00:00:00","97","A","ZOE'S KITCHEN",""
"68655","1385078","HIKES POINT CHILD CARE","","3046 HUNSINGER LN","","LOUISVILLE","KY","40220","FOOD SERVICE (DAY CARE / CHILD CARE CENTER","38.2170000","-85.6242000","2018-06-05 00:00:00","100","A","HIKES POINT CHILD CARE",""
"100049","1385081","CARALIS ROTISSERIE CHICKEN","","9148 TAYLORSVILLE RD","","LOUISVILLE","KY","40299","FOOD SERVICE","38.2121000","-85.5890000","2018-06-05 00:00:00","99","A","CARALIS ROTISSERIE CHICKEN",""
"99415","1385092","DUNKIN DONUTS","","4611 DIXIE HWY","","LOUISVILLE","KY","40216","FOOD SERVICE","38.1775000","-85.8189000","2018-06-04 00:00:00","97","A","DUNKIN DONUTS",""
"34244","1385093","SPEEDWAY #9646","","3915 DIXIE HWY","","LOUISVILLE","KY","40216","RETAIL-FOOD  10,000 SQ FT OR LESS","38.1945000","-85.8052000","2018-06-04 00:00:00","98","A","SPEEDWAY #9646",""
"34244","1385094","SPEEDWAY #9646","","3915 DIXIE HWY","","LOUISVILLE","KY","40216","RETAIL-FOOD  10,000 SQ FT OR LESS","38.1945000","-85.8052000","2018-06-04 00:00:00","98","","SPEEDWAY #9646",""
"96242","1385095","PERFECT ANGELS DAYCARE","","3845 CANE RUN RD","","LOUISVILLE","KY","40211","FOOD SERVICE (DAY CARE / CHILD CARE CENTER","38.2154000","-85.8179000","2018-06-04 00:00:00","99","A","PERFECT ANGELS DAYCARE",""
"102225","1385096","ALADDIN'S CAFE","","1613 BARDSTOWN RD","","LOUISVILLE","KY","40204","FOOD SERVICE","38.1388000","-85.4220000","2018-06-05 00:00:00","97","A","ALADDIN'S CAFE",""
"99344","1385098","CHICK-FIL-A","","6630 DIXIE HWY","","LOUISVILLE","KY","40258","FOOD SERVICE","38.1543000","-85.8356000","2018-06-05 00:00:00","98","A","CHICK-FIL-A",""
"86553","1387404","WAFFLE HOUSE #1887","","10563 DIXIE HWY","","LOUISVILLE","KY","40272","FOOD SERVICE","38.1014000","-85.8705000","2018-06-13 00:00:00","95","A","WAFFLE HOUSE #1887",""
"105246","1387417","CAFE MIMOSA","","1543 BARDSTOWN RD","","LOUISVILLE","KY","40205","FOOD SERVICE","38.2315000","-85.7069000","2018-06-13 00:00:00","96","A","CAFE MIMOSA",""
"90496","1387427","QDOBA #2753","","1831 BLANKENBAKER PKWY","","LOUISVILLE","KY","40299","FOOD SERVICE","38.2155000","-85.5381000","2018-06-13 00:00:00","99","A","QDOBA #2753",""
"100440","1387429","MCDONALD'S #4924","","3100 POPLAR LEVEL RD","","LOUISVILLE","KY","40219","FOOD SERVICE","38.2115000","-85.7209000","2018-06-13 00:00:00","93","A","MCDONALD'S #4924",""
"34812","1387430","ORIENTAL STAR","","4212 BISHOP LN","","LOUISVILLE","KY","40218","FOOD SERVICE","38.2003000","-85.6867000","2018-06-13 00:00:00","94","A","ORIENTAL STAR",""
"89892","1387431","COME BACK INN","","909 SWAN ST","","LOUISVILLE","KY","40204","FOOD SERVICE","38.2395000","-85.7364000","2018-06-13 00:00:00","79","C","COME BACK INN",""
"84063","1387432","ZANZABAR","","2100 S PRESTON ST","","LOUISVILLE","KY","40217","FOOD SERVICE","38.2175000","-85.7458000","2018-06-13 00:00:00","98","A","ZANZABAR",""
"34897","1381549","FRISCH'S BIG BOY #153","","1710 LINCOLN AVE","","LOUISVILLE","KY","40213","FOOD SERVICE","38.1971000",".0000000","2018-05-22 00:00:00","98","A","FRISCH'S BIG BOY #153",""
"30085","1381550","SPEEDWAY #9709","","4239 POPLAR LEVEL RD","","LOUISVILLE","KY","40213","RETAIL-FOOD  10,000 SQ FT OR LESS","38.1974000","-85.7077000","2018-05-22 00:00:00","97","A","SPEEDWAY #9709",""
"105246","1383332","CAFE MIMOSA","","1543 BARDSTOWN RD","","LOUISVILLE","KY","40205","FOOD SERVICE","38.2315000","-85.7069000","2018-05-16 00:00:00","89","","CAFE MIMOSA",""
"104076","1383429","PLATINUM FOOD MART","","1025 W BROADWAY","","LOUISVILLE","KY","40203","RETAIL-FOOD  10,000 SQ FT OR LESS","38.2476000","-85.7691000","2018-05-30 00:00:00","95","A","PLATINUM FOOD MART",""
"104076","1383430","PLATINUM FOOD MART","","1025 W BROADWAY","","LOUISVILLE","KY","40203","RETAIL-FOOD  10,000 SQ FT OR LESS","38.2476000","-85.7691000","2018-05-30 00:00:00","94","","PLATINUM FOOD MART",""
"90602","1383432","VFW POST 2921","","2902 S 7TH ST","","LOUISVILLE","KY","40216","FOOD SERVICE","38.2043000","-85.7907000","2018-05-30 00:00:00","96","A","VFW POST 2921",""
"41292","1385119","OLE HICKORY PIT BAR B Q","","6106 OLD SHEPHERDSVILLE RD","","LOUISVILLE","KY","40228","FOOD SERVICE","38.1628000","-85.6604000","2018-06-05 00:00:00","94","A","OLE HICKORY PIT BAR B Q",""
"99670","1385128","FIESTA TIME AMIGOS","","8123 BARDSTOWN RD","","LOUISVILLE","KY","40291","FOOD SERVICE","38.1292000","-85.5763000","2018-06-05 00:00:00","98","A","FIESTA TIME AMIGOS",""
"104916","1387545","SANCTUARY CHURCH KITCHEN","","930 MARY ST","","LOUISVILLE","KY","40204","FOOD SERVICE COMMISSARY","38.2338000","-85.9430000","2018-06-13 00:00:00","99","A","SANCTUARY CHURCH KITCHEN",""
"65058","1387547","QUALITY INN & SUITES","","311 E GAULBERT AVE","","LOUISVILLE","KY","40208","FOOD SERVICE","38.2239000","-85.7529000","2018-06-14 00:00:00","98","A","QUALITY INN & SUITES",""
"103888","1381554","WINGATE LOUISVILLE FAIR & EXPO CENTER","","3200 KEMMONS DR","","LOUISVILLE","KY","40218","RETAIL-FOOD  10,000 SQ FT OR LESS","38.2047000","-85.6808000","2018-05-23 00:00:00","100","","WINGATE LOUISVILLE FAIR & EXPO CENTER",""
"105179","1381625","HOME 2 SUITES AIRPORT","","3000 CRITTENDEN DR","","LOUISVILLE","KY","40209","RETAIL-FOOD  10,000 SQ FT OR LESS","38.2003000","-85.7518000","2018-05-17 00:00:00","96","","HOME 2 SUITES AIRPORT",""
"46436","1387978","SPEEDWAY #9701","","8510 NATIONAL TURNPIKE","","FAIRDALE","KY","40118","RETAIL-FOOD  10,000 SQ FT OR LESS","38.1253000","-85.7491000","2018-06-14 00:00:00","97","","SPEEDWAY #9701",""
"43367","1388002","KENESETH ISRAEL PRESCHOOL","","2531 TAYLORSVILLE RD","","LOUISVILLE","KY","40205","FOOD SERVICE (DAY CARE / CHILD CARE CENTER","38.2241000","-85.6748000","2018-06-14 00:00:00","100","A","KENESETH ISRAEL PRESCHOOL",""
"35203","1388025","INDI'S","","4419 CANE RUN RD","","LOUISVILLE","KY","40216","FOOD SERVICE","38.1967000","-85.8403000","2018-06-14 00:00:00","96","A","INDI'S",""
"34009","1388034","UPTOWN CAFE","","1624 BARDSTOWN RD","","LOUISVILLE","KY","40205","FOOD SERVICE","38.2301000","-85.7040000","2018-06-14 00:00:00","94","A","UPTOWN CAFE",""
"86178","1378359","FRIENDLY MART BP","","3741 S HURSTBOURNE PKWY","","LOUISVILLE","KY","40299","PRE-PACKAGED RETAIL","38.1962000","-85.6035000","2018-05-10 00:00:00","98","","FRIENDLY MART BP",""
"47951","1378434","VIETNAM KITCHEN","","5339 MITSCHER AVE","","LOUISVILLE","KY","40214","FOOD SERVICE","38.1706000","-85.7700000","2018-05-10 00:00:00","98","A","VIETNAM KITCHEN",""
"84449","1378446","BISTRO 42","","6021 TIMBER RIDGE DR","","PROSPECT","KY","40059","FOOD SERVICE","38.3353000","-85.6235000","2018-05-10 00:00:00","100","A","BISTRO 42",""
"82908","1378448","SAV-A-STEP","","13702 LAGRANGE RD","","LOUISVILLE","KY","40245","RETAIL-FOOD  10,000 SQ FT OR LESS","38.3013000","-85.4994000","2018-05-10 00:00:00","98","A","SAV-A-STEP",""
"34685","1381728","ROBBEN'S ROOST","","5906 SIX MILE LN","","LOUISVILLE","KY","40220","FOOD SERVICE","38.1950000","-85.6507000","2018-05-22 00:00:00","100","A","ROBBEN'S ROOST",""
"33164","1381732","WOODHAVEN COUNTRY CLUB","","7200 WOODHAVEN RD","","LOUISVILLE","KY","40291","FOOD SERVICE","38.1722000","-85.6275000","2018-05-23 00:00:00","92","A","WOODHAVEN COUNTRY CLUB",""
"72441","1381733","AFC SUSHI @ KROGER #389","","5929 TIMBER RIDGE DR","","PROPSECT","KY","40059","FOOD SERVICE","38.3403000","-85.6214000","2018-05-23 00:00:00","100","A","AFC SUSHI @ KROGER #389",""
"63776","1381735","KROGER L-389","","5929 TIMBER RIDGE DR","","PROSPECT","KY","40059","RETAIL-FOOD  10,001 SQ FT OR OVER","38.3403000","-85.6214000","2018-05-23 00:00:00","98","","KROGER L-389",""
"94876","1381783","4TH AVE UNITED METHODIST CHURCH","","318 W ST. CATHERINE ST","","LOUISVILLE","KY","40203","FOOD SERVICE","38.2371000","-85.7595000","2018-05-22 00:00:00","95","A","4TH AVE UNITED METHODIST CHURCH",""
"92244","1381784","8 TASTE OF CHINA","","1167 S 4TH ST","","LOUISVILLE","KY","40203","FOOD SERVICE","38.2351000","-85.7602000","2018-05-22 00:00:00","90","A","8 TASTE OF CHINA",""
"83179","1381792","PUERTO VALLARTA","","7813 BEULAH CHURCH RD","","LOUISVILLE","KY","40228","FOOD SERVICE","38.1235000","-85.6148000","2018-05-23 00:00:00","97","A","PUERTO VALLARTA",""
"103887","1385404","DUNKIN DONUTS","","2815 FERN VALLEY RD","","LOUISVILLE","KY","40213","FOOD SERVICE","38.1574000","-85.7112000","2018-06-06 00:00:00","93","A","DUNKIN DONUTS",""
"90012","1385409","SONIC DRIVE-IN","","3641 SPRINGHURST BLVD","","LOUISVILLE","KY","40241","FOOD SERVICE","38.3801000","-85.5591000","2018-06-06 00:00:00","99","A","SONIC DRIVE-IN",""
"99856","1385417","WING ZONE","","3038 HUNSINGER LN","","LOUISVILLE","KY","40220","FOOD SERVICE","38.2177000","-85.6248000","2018-06-06 00:00:00","99","A","WING ZONE",""
"88269","1385420","BRIGHT BEGINNINGS LEARNING CENTER","","2603 DIXIE HWY","","LOUISVILLE","KY","40216","FOOD SERVICE (DAY CARE / CHILD CARE CENTER","38.2121000","-85.7966000","2018-06-06 00:00:00","98","A","BRIGHT BEGINNINGS LEARNING CENTER",""
"75562","1385423","FRISCH'S BIG BOY #203","","6209 BARDSTOWN RD","","LOUISVILLE","KY","40291","FOOD SERVICE","38.1554000","-85.5891000","2018-06-06 00:00:00","97","A","FRISCH'S BIG BOY #203",""
"89770","1385424","DAIRY QUEEN","","6205 BARDSTOWN RD","","LOUISVILLE","KY","40291","FOOD SERVICE","38.1558000","-85.5894000","2018-06-06 00:00:00","97","A","DAIRY QUEEN",""
"57089","1388263","PT'S SHOW CLUB","","227 E MARKET ST","","LOUISVILLE","KY","40202","FOOD SERVICE","38.2549000","-85.7491000","2018-06-15 00:00:00","100","A","PT'S SHOW CLUB",""
"82544","1378463","40 ACRES & A MULE","","1800 DIXIE HWY","","LOUISVILLE","KY","40210","FOOD SERVICE","38.2246000","-85.7919000","2018-05-10 00:00:00","91","A","40 ACRES & A MULE",""
"70057","1378470","SINCERELY YOURS CATERING","","1515 CYPRESS ST","","LOUISVILLE","KY","40211","CATERERS","38.2300000",".0000000","2018-05-10 00:00:00","99","A","SINCERELY YOURS CATERING",""
"93714","1378478","ZAXBY'S","","10715 DIXIE HWY","","LOUISVILLE","KY","40272","FOOD SERVICE","38.9810000","-85.8724000","2018-05-10 00:00:00","99","A","ZAXBY'S",""
"77062","1378563","SILVER SPOON","","604 S 3RD ST","","LOUISVILLE","KY","40202","FOOD SERVICE","38.2485000",".0000000","2018-05-10 00:00:00","94","A","SILVER SPOON",""
"71031","1378621","MCALISTER'S #1135","","2400 LIME KILN LN","","LOUISVILLE","KY","40222","FOOD SERVICE","38.2865000","-85.6292000","2018-05-11 00:00:00","95","A","MCALISTER'S #1135",""
"99674","1381806","VIETNAM ORIENTAL FOOD MARKET","","5019 S 3RD ST","","LOUISVILLE","KY","40214","RETAIL-FOOD  10,000 SQ FT OR LESS","38.1735000","-85.7670000","2018-05-23 00:00:00","87","","VIETNAM ORIENTAL FOOD MARKET",""
"105192","1381837","BLAIRWOOD GRILL","","9300 BLAIRWOOD RD","","LOUISVILLE","KY","40222","FOOD SERVICE","38.2263000","-85.5843000","2018-05-17 00:00:00","100","","BLAIRWOOD GRILL",""
"105197","1381907","EL NOPAL","","4414 DIXIE HWY","","LOUISVILLE","KY","40216","FOOD SERVICE","38.1828000","-85.8155000","2018-05-21 00:00:00","100","","EL NOPAL",""
"40991","1383903","SPEEDWAY #9783","","4900 OUTER LOOP","","LOUISVILLE","KY","40219","RETAIL-FOOD  10,000 SQ FT OR LESS","38.1373000",".0000000","2018-05-31 00:00:00","90","A","SPEEDWAY #9783",""
"34396","1383909","HUNTING CREEK COUNTRY CLUB","","6807 FOXCRAFT RD","","PROSPECT","KY","40059","FOOD SERVICE","38.3448000","-85.6035000","2018-05-31 00:00:00","97","A","HUNTING CREEK COUNTRY CLUB",""
"102694","1385482","KIDDIE COLLEGE II","","3050 W BROADWAY","","LOUISVILLE","KY","40211","FOOD SERVICE (DAY CARE / CHILD CARE CENTER","38.2492000","-85.6800000","2018-06-06 00:00:00","96","A","KIDDIE COLLEGE II",""
"102587","1385489","DIAMOND STATION","","2280 BARDSTOWN RD","","LOUISVILLE","KY","40205","FOOD SERVICE","38.2240000","-85.6915000","2018-06-06 00:00:00","99","A","DIAMOND STATION",""
"31128","1378673","VALLEY VIEW CHURCH CHILD CARE","","8911 OLD 3RD STREET RD","","LOUISVILLE","KY","40272","FOOD SERVICE (DAY CARE / CHILD CARE CENTER","38.1160000","-85.8152000","2018-05-11 00:00:00","98","A","VALLEY VIEW CHURCH CHILD CARE",""
"34573","1378750","BROWNSBORO PARK COMMUNITY","","2960 GOOSE CREEK RD","","LOUISVILLE","KY","40222","FOOD SERVICE","38.2917000","-85.5832000","2018-05-11 00:00:00","97","","BROWNSBORO PARK COMMUNITY",""
"56535","1382000","MOBY DICK","","11210 PRESTON HWY","","LOUISVILLE","KY","40229","FOOD SERVICE","38.8660000","-85.6692000","2018-05-21 00:00:00","99","A","MOBY DICK",""
"33403","1382001","BLUE LICK OPTIMIST","","4611 MUD LN","","LOUISVILLE","KY","40229","FOOD SERVICE","38.8920000","-85.6920000","2018-05-21 00:00:00","97","A","BLUE LICK OPTIMIST",""
"84369","1382002","NORTON BROWNSBORO HOSPITAL","","4960 NORTON HEALTHCARE BLVD","","LOUISVILLE","KY","40241","RETAIL-FOOD  10,000 SQ FT OR LESS","38.3138000","-85.5757000","2018-05-24 00:00:00","100","A","NORTON BROWNSBORO HOSPITAL",""
"65067","1382006","WALGREENS #6171","","5900 TIMBER RIDGE DR","","PROSPECT","KY","40059","PRE-PACKAGED RETAIL","38.3381000","-85.6211000","2018-05-24 00:00:00","100","","WALGREENS #6171",""
"69071","1383911","DOMINO'S PIZZA #1433","","5400 PRESTON HWY","","LOUISVILLE","KY","40213","FOOD SERVICE","38.1705000","-85.7090000","2018-05-31 00:00:00","97","A","DOMINO'S PIZZA #1433",""
"99650","1383912","TACO LOCO","","5622 PRESTON HWY","","LOUISVILLE","KY","40219","FOOD SERVICE","38.1672000","-85.7057000","2018-05-31 00:00:00","100","A","TACO LOCO",""
"33901","1383940","AUDUBON HOSPITAL FOOD SERVICE","","1 AUDUBON PLAZA","","LOUISVILLE","KY","40217","FOOD SERVICE (HOSPITAL / NURSING HOME","38.2151000","-85.7216000","2018-05-31 00:00:00","97","A","AUDUBON HOSPITAL FOOD SERVICE",""
"86636","1378944","GRACIOUS PLENTY CATERING","","2900 BROWNSBORO RD","","LOUISVILLE","KY","40206","CATERERS","38.2600000","-85.6881000","2018-05-14 00:00:00","100","A","GRACIOUS PLENTY CATERING",""
"63349","1378958","ATRIA SPRINGDALE","","4501 SPRINGDALE RD","","LOUISVILLE","KY","40241","FOOD SERVICE","38.3115000","-85.5863000","2018-05-14 00:00:00","100","A","ATRIA SPRINGDALE",""
"94642","1378969","JOY LUCK ASIAN CUISINE","","1285 BARDSTOWN RD","","LOUISVILLE","KY","40204","FOOD SERVICE","38.2359000","-85.7157000","2018-05-10 00:00:00","92","A","JOY LUCK ASIAN CUISINE",""
"96979","1378980","CHINA CASTLE","","7420 OLD 3RD STREET RD","","LOUISVILLE","KY","40214","FOOD SERVICE","38.1335000","-85.7900000","2018-05-14 00:00:00","98","A","CHINA CASTLE",""
"102582","1379006","GAGEL FOOD MARKET","","2001 BANK ST","","LOUISVILLE","KY","40203","RETAIL WITH LIMITED SERVICE","38.2657000","-85.7820000","2018-05-14 00:00:00","91","","GAGEL FOOD MARKET",""
"94723","1382022","GRALEHAUS","","1001 BAXTER AVE","","LOUISVILLE","KY","40204","FOOD SERVICE","38.2991000","-85.7231000","2018-05-23 00:00:00","98","A","GRALEHAUS",""
"36392","1382023","CAFE 360 & MANTRA LOUNGE","","1582 BARDSTOWN RD","","LOUISVILLE","KY","40205","FOOD SERVICE","38.2308000","-85.7051000","2018-05-23 00:00:00","92","A","CAFE 360 & MANTRA LOUNGE",""
"33447","1382025","KROGER L-339","","2440 BARDSTOWN RD","","LOUISVILLE","KY","40205","RETAIL-FOOD  10,001 SQ FT OR OVER","38.2232000","-85.6875000","2018-05-23 00:00:00","94","","KROGER L-339",""
"72218","1382026","AFC SUSHI @ KROGER #339","","2440 BARDSTOWN RD","","LOUISVILLE","KY","40205","FOOD SERVICE","38.2232000","-85.6875000","2018-05-24 00:00:00","100","A","AFC SUSHI @ KROGER #339",""
"97746","1382028","BIG MIKE'S SHAVED ICE LLC","","1265 BARDSTOWN RD","","LOUISVILLE","KY","40204","STATIONARY RESTRICTED CONCESSON","38.1250000","-85.3840000","2018-05-24 00:00:00","100","","BIG MIKE'S SHAVED ICE LLC",""
"100487","1382031","BEAN","","1138 GOSS AVE","","LOUISVILLE","KY","40217","RETAIL-FOOD  10,000 SQ FT OR LESS","38.2258000","-85.7336000","2018-05-24 00:00:00","100","A","BEAN",""
"105213","1382076","KAYFIELD ACADEMY III","","3800 NORTHUMBERLAND DR","","LOUISVILLE","KY","40245","FOOD SERVICE (DAY CARE / CHILD CARE CENTER","38.3059000","-85.5230000","2018-05-16 00:00:00","100","","KAYFIELD ACADEMY III",""
"34884","1384014","HURSTBOURNE CLUB SNACKBAR","","9000 HURSTBOURNE CLUB LN","","LOUISVILLE","KY","40222","FOOD SERVICE","38.2396000","-85.5903000","2018-05-31 00:00:00","93","A","HURSTBOURNE CLUB SNACKBAR",""
"62737","1384016","PLAINVIEW SWIM & TENNIS CENTER","","10235 TIMBERWOOD CIRCLE","","LOUISVILLE","KY","40223","FOOD SERVICE","38.2315000","-85.5660000","2018-05-31 00:00:00","100","A","PLAINVIEW SWIM & TENNIS CENTER",""
"93574","1384021","ROOF TOP GRILL","","708 LOUIS COLEMAN JR. DR","","LOUISVILLE","KY","40211","FOOD SERVICE","38.2492000","-85.8087000","2018-05-31 00:00:00","95","A","ROOF TOP GRILL",""
"38833","1384022","CLUB CEDAR","","416 S 26TH ST","","LOUISVILLE","KY","40212","FOOD SERVICE","38.2565000","-85.7943000","2018-05-31 00:00:00","95","A","CLUB CEDAR",""
"102791","1385703","KIDS CAFE SOUTH LOU. COMMUNITY CENTER","","2911 TAYLOR BLVD","","LOUISVILLE","KY","40215","RETAIL WITH LIMITED SERVICE","38.2083000","-85.7739000","2018-06-05 00:00:00","96","","KIDS CAFE SOUTH LOU. COMMUNITY CENTER",""
"93861","1385779","CHIPOTLE","","10333 WESTPORT RD","","LOUISVILLE","KY","40241","FOOD SERVICE","38.2932000","-85.5606000","2018-06-07 00:00:00","100","A","CHIPOTLE",""
"91448","1385780","WOLF CREEK SNACK BAR","","4400 WOLFSPRING DR","","LOUISVILLE","KY","40241","PRE-PACKAGED RETAIL","38.3277000","-85.6637000","2018-06-07 00:00:00","98","","WOLF CREEK SNACK BAR",""
"50073","1385788","HOOPS GRILL & SPORTS","","6733 STRAWBERRY LN","","LOUISVILLE","KY","40214","FOOD SERVICE","38.1580000","-85.7640000","2018-06-07 00:00:00","95","A","HOOPS GRILL & SPORTS",""
"89156","1385789","LITTLE JEWELS & GEMS","","4144 TAYLOR BLVD","","LOUISVILLE","KY","40215","FOOD SERVICE (DAY CARE / CHILD CARE CENTER","38.1818000","-85.7836000","2018-06-07 00:00:00","95","A","LITTLE JEWELS & GEMS",""
"93385","1385790","BRIGHT BEGINNINGS CHILD DEV","","5057 POPLAR LEVEL RD","","LOUISVILLE","KY","40219","FOOD SERVICE (DAY CARE / CHILD CARE CENTER","38.1635000","-85.6784000","2018-06-07 00:00:00","98","A","BRIGHT BEGINNINGS CHILD DEV",""
"50429","1382122","SOUTHSIDE CHRISTIAN #10","","7149 SOUTHSIDE DR","","LOUISVILLE","KY","40214","FOOD SERVICE (DAY CARE / CHILD CARE CENTER","38.1507000","-85.7668000","2018-05-24 00:00:00","98","A","SOUTHSIDE CHRISTIAN #10",""
"34844","1382124","MOBY DICK","","2700 S 3RD ST","","LOUISVILLE","KY","40208","FOOD SERVICE","38.2099000","-85.7635000","2018-05-24 00:00:00","95","A","MOBY DICK",""
"88047","1382126","DAIRY QUEEN","","2058 PORTLAND AVE","","LOUISVILLE","KY","40212","FOOD SERVICE","38.2681000","-85.7821000","2018-05-24 00:00:00","90","A","DAIRY QUEEN",""
"35199","1382155","KROGER L-224","","2200 BROWNSBORO RD","","LOUISVILLE","KY","40206","RETAIL-FOOD  10,001 SQ FT OR OVER","38.2582000","-85.7043000","2018-05-25 00:00:00","","","KROGER L-224",""
"105267","1384147","LAUGH AND LEARN","","4314 CANE RUN RD","","LOUISVILLE","KY","40216","FOOD SERVICE (DAY CARE / CHILD CARE CENTER","38.1998000","-85.8376000","2018-05-25 00:00:00","100","","LAUGH AND LEARN",""
"33441","1385794","LEE'S FAMOUS RECIPE","","9813 OLD 3RD STREET RD","","LOUISVILLE","KY","40272","FOOD SERVICE","38.1135000","-85.8360000","2018-06-07 00:00:00","92","A","LEE'S FAMOUS RECIPE",""
"103982","1385816","TAQUERIA Y ROSTICERIA","","7416 PRESTON HWY","","LOUISVILLE","KY","40219","FOOD SERVICE","38.1434000","-85.6899000","2018-06-07 00:00:00","98","B","TAQUERIA Y ROSTICERIA",""
"56899","1385817","WENDY'S #310","","193 OUTER LOOP","","LOUISVILLE","KY","40214","FOOD SERVICE","38.1267000","-85.7747000","2018-06-07 00:00:00","66","C","WENDY'S #310",""
"101651","1379509","M&M BARBEQUE","","1401 BLUEGRASS AVE","","LOUISVILLE","KY","40215","FOOD SERVICE","38.1797000","-85.7867000","2018-05-15 00:00:00","100","A","M&M BARBEQUE",""
"97663","1379514","BUFFALO WILD WINGS","","4917 OUTER LOOP","","LOUISVILLE","KY","40219","FOOD SERVICE","38.1379000","-85.6663000","2018-05-15 00:00:00","98","A","BUFFALO WILD WINGS",""
"33906","1379518","VINCENZO'S","","150 S 5TH ST","","LOUISVILLE","KY","40201","FOOD SERVICE","38.2557000","-85.7586000","2018-05-15 00:00:00","96","A","VINCENZO'S",""
"90681","1379519","GORDON BIERSCH BREWERY RESTAURANT","","400 S 4TH ST","","LOUISVILLE","KY","40203","FOOD SERVICE","38.2528000","-85.7573000","2018-05-15 00:00:00","96","A","GORDON BIERSCH BREWERY RESTAURANT",""
"34273","1379520","BOONE'S BP","","601 E BROADWAY","","LOUISVILLE","KY","40202","RETAIL-FOOD  10,000 SQ FT OR LESS","38.2453000",".0000000","2018-05-15 00:00:00","94","A","BOONE'S BP",""
"34273","1379521","BOONE'S BP","","601 E BROADWAY","","LOUISVILLE","KY","40202","RETAIL-FOOD  10,000 SQ FT OR LESS","38.2453000",".0000000","2018-05-15 00:00:00","90","","BOONE'S BP",""
"79666","1379583","SUBWAY","","719 S BROOK ST","","LOUISVILLE","KY","40203","FOOD SERVICE","38.2448000","-85.7516000","2018-05-15 00:00:00","95","A","SUBWAY",""
"34239","1382309","MORRISON SENIOR DINING","","10510 LAGRANGE RD","","LOUISVILLE","KY","40223","FOOD SERVICE","38.2716000","-85.5574000","2018-05-25 00:00:00","100","A","MORRISON SENIOR DINING",""
"82901","1382310","DOMINO'S PIZZA","","9551 US HWY 42","","PROSPECT","KY","40059","FOOD SERVICE","38.3396000","-85.5565000","2018-05-25 00:00:00","95","A","DOMINO'S PIZZA",""
"59772","1382312","MEIJER #164 GAS","","10701 FISCHER PARK DR","","LOUISVILLE","KY","40241","RETAIL-FOOD  10,000 SQ FT OR LESS","38.2970000","-85.5537000","2018-05-25 00:00:00","100","","MEIJER #164 GAS",""
"32534","1382317","KRAZY DAVES NEIGHBORHOOD PUB & GRILL","","2817 DEL RIO PL","","LOUISVILLE","KY","40220","FOOD SERVICE","38.2146000","-85.6544000","2018-05-24 00:00:00","96","A","KRAZY DAVES NEIGHBORHOOD PUB & GRILL",""
"97357","1382333","BRENDON'S CATCH 23","","505 S 4TH ST","","LOUISVILLE","KY","40202","FOOD SERVICE","38.2509000","-85.7575000","2018-05-24 00:00:00","99","A","BRENDON'S CATCH 23",""
"94838","1382338","LA POPULAR","","2521 S 7TH ST","","LOUISVILLE","KY","40208","RETAIL-FOOD  10,000 SQ FT OR LESS","38.2142000","-85.7831000","2018-05-25 00:00:00","91","","LA POPULAR",""
"83052","1384234","RAMADA DOWNTOWN NORTH","","1041 ZORN AVE","","LOUISVILLE","KY","40207","FOOD SERVICE","38.2763000","-85.6982000","2018-06-01 00:00:00","98","A","RAMADA DOWNTOWN NORTH",""
"95292","1384236","KY KINGDOM SCOOPS","","937 PHILLIPS LN","","LOUISVILLE","KY","40209","FOOD SERVICE","38.2003000","-85.7407000","2018-06-01 00:00:00","100","A","KY KINGDOM SCOOPS",""
"95291","1384239","KY KINGDOM TWISTED PRETZELS","","937 PHILLIPS LN","","LOUISVILLE","KY","40209","FOOD SERVICE","38.2003000","-85.7407000","2018-06-01 00:00:00","100","A","KY KINGDOM TWISTED PRETZELS",""
"103982","1384258","TAQUERIA Y ROSTICERIA","","7416 PRESTON HWY","","LOUISVILLE","KY","40219","FOOD SERVICE","38.1434000","-85.6899000","2018-06-01 00:00:00","78","C","TAQUERIA Y ROSTICERIA",""
"34898","1384302","PESTO'S ITALIAN RESTAURANT","","566 S 5TH ST","","LOUISVILLE","KY","40203","FOOD SERVICE","38.2493000","-85.7597000","2018-05-31 00:00:00","94","A","PESTO'S ITALIAN RESTAURANT",""
"90074","1384307","MT. FUJI","","309 W CARDINAL BLVD","","LOUISVILLE","KY","40208","FOOD SERVICE","38.2206000","-85.2613000","2018-06-01 00:00:00","98","A","MT. FUJI",""
"102637","1384313","KY KINGDOM SHIVER ME CHICKEN TENDERS","","937 PHILLIPS LN","","LOUISVILLE","KY","40209","FOOD SERVICE","38.1989000","-85.7418000","2018-06-01 00:00:00","100","A","KY KINGDOM SHIVER ME CHICKEN TENDERS",""
"95298","1384314","KY KINGDOM TOUCAN'S BEACHSIDE GRILL","","937 PHILLIPS LN","","LOUISVILLE","KY","40209","FOOD SERVICE","38.2003000","-85.7407000","2018-06-01 00:00:00","100","A","KY KINGDOM TOUCAN'S BEACHSIDE GRILL",""
"99649","1384315","KY KINGDOM LOUIE'S FRESH MARKET","","937 PHILLIPS LN","","LOUISVILLE","KY","40209","FOOD SERVICE","38.1989000","-85.7418000","2018-06-01 00:00:00","100","A","KY KINGDOM LOUIE'S FRESH MARKET",""
"95316","1384316","KY KINGDOM PIZZERIA VILLAGIO","","937 PHILLIPS LN","","LOUISVILLE","KY","40209","FOOD SERVICE","38.2003000","-86.5450000","2018-06-01 00:00:00","98","A","KY KINGDOM PIZZERIA VILLAGIO",""
"56766","1385894","TRIXIE'S KNOCKOUT SALOON & GRILL","","6112 PRESTON HWY","","LOUISVILLE","KY","40219","FOOD SERVICE","38.1616000","-85.7002000","2018-06-07 00:00:00","99","A","TRIXIE'S KNOCKOUT SALOON & GRILL",""
"34351","1385895","TRIXIE'S","","6114 PRESTON HWY","","LOUISVILLE","KY","40219","FOOD SERVICE","38.1615000","-85.7002000","2018-06-07 00:00:00","98","A","TRIXIE'S",""
"34696","1385998","SPRING STREET BAR & GRILL","","300 S SPRING ST","","LOUISVILLE","KY","40206","FOOD SERVICE","38.2513000","-85.7190000","2018-05-16 00:00:00","","","SPRING STREET BAR & GRILL",""
"34696","1386000","SPRING STREET BAR & GRILL","","300 S SPRING ST","","LOUISVILLE","KY","40206","FOOD SERVICE","38.2513000","-85.7190000","2018-05-16 00:00:00","","","SPRING STREET BAR & GRILL",""
"69764","1386002","EL NOPAL","","11336 PRESTON HWY","","LOUISVILLE","KY","40229","FOOD SERVICE","38.8400000","-85.6702000","2018-05-15 00:00:00","","","EL NOPAL",""
"82262","1379841","BUTCHERS BEST MEATS & DELI","","9521 US HWY 42","","PROSPECT","KY","40059","RETAIL-FOOD  10,000 SQ FT OR LESS","38.3396000","-85.5565000","2018-05-16 00:00:00","96","","BUTCHERS BEST MEATS & DELI",""
"90669","1379842","TJ MAXX","","4121 TOWNE CENTER DR","","LOUISVILLE","KY","40245","PRE-PACKAGED RETAIL","38.2977000","-85.5563000","2018-05-16 00:00:00","100","","TJ MAXX",""
"89364","1379867","#1 CHINESE RESTAURANT","","5011 MUD LN","","LOUISVILLE","KY","40229","FOOD SERVICE","38.8890000","-85.6691000","2018-05-16 00:00:00","98","A","#1 CHINESE RESTAURANT",""
"62284","1379905","PENN STATION #5","","1933 BLANKENBAKER PKWY","","LOUISVILLE","KY","40299","FOOD SERVICE","38.2136000","-85.5386000","2018-05-15 00:00:00","99","A","PENN STATION #5",""
"78969","1382363","SOUTHSIDE CHRISTIAN #17","","3815 DIXIE HWY","","LOUISVILLE","KY","40216","FOOD SERVICE (DAY CARE / CHILD CARE CENTER","38.1959000","-85.8051000","2018-05-25 00:00:00","98","A","SOUTHSIDE CHRISTIAN #17",""
"34789","1382376","LOUISVILLE BOAT CLUB SNACK BAR","","4200 RIVER RD","","LOUISVILLE","KY","40207","FOOD SERVICE","38.2919000","-85.6766000","2018-05-25 00:00:00","93","A","LOUISVILLE BOAT CLUB SNACK BAR",""
"95326","1384356","KY KINGDOM DIPPIN DOTS","","937 PHILLIPS LN","","LOUISVILLE","KY","40209","FOOD SERVICE","38.2003000","-86.7407000","2018-06-01 00:00:00","99","A","KY KINGDOM DIPPIN DOTS",""
"95296","1384358","KY KINGDOM CACTUS JACKS","","937 PHILLIPS LN","","LOUISVILLE","KY","40209","FOOD SERVICE","38.2003000","-85.7407000","2018-06-01 00:00:00","100","A","KY KINGDOM CACTUS JACKS",""
"99345","1386038","PLEASE & THANK YOU","","2341 FRANKFORT AVE","","LOUISVILLE","KY","40206","RETAIL-FOOD  10,000 SQ FT OR LESS","38.2537000","-85.7014000","2018-06-08 00:00:00","100","","PLEASE & THANK YOU",""
"101309","1386039","MIRIN","","2013 FRANKFORT AVE","","LOUISVILLE","KY","40206","FOOD SERVICE","38.2547000","-85.7096000","2018-06-08 00:00:00","97","A","MIRIN",""
"95873","1386101","SUTHERLAND CLUB HOUSE","","6800 WINDHAM PKWY","","PROSPECT","KY","40059","PRE-PACKAGED RETAIL","38.3480000","-85.6185000","2018-06-08 00:00:00","98","","SUTHERLAND CLUB HOUSE",""
"67437","1386106","FAZOLI'S","","9433 VIKING CENTER DR","","LOUISVILLE","KY","40222","FOOD SERVICE","38.2432000","-85.5776000","2018-06-08 00:00:00","97","A","FAZOLI'S",""
"33854","1386129","BROWN MAIN KITCHEN","","335 W BROADWAY","","LOUISVILLE","KY","40202","FOOD SERVICE","38.2465000","-85.7580000","2018-06-07 00:00:00","97","A","BROWN MAIN KITCHEN",""
"102825","1386130","YAFA CAFE","","612 S 5TH ST","","LOUISVILLE","KY","40202","FOOD SERVICE","38.2486000","-85.7598000","2018-06-08 00:00:00","98","A","YAFA CAFE",""
"104165","1386131","MCDONALD'S","","301 UNIVERSITY BLVD","","LOUISVILLE","KY","40217","FOOD SERVICE","38.2144000","-85.7508000","2018-06-08 00:00:00","97","A","MCDONALD'S",""
"96656","1386141","WARD 426","","426 BAXTER AVE","","LOUISVILLE","KY","40204","FOOD SERVICE","38.2487000","-85.7308000","2018-06-08 00:00:00","97","A","WARD 426",""
"97358","1380003","MERRYWEATHER","","1101 LYDIA ST","","LOUISVILLE","KY","40217","FOOD SERVICE","38.2245000","-85.7371000","2018-05-16 00:00:00","96","A","MERRYWEATHER",""
"72495","1380064","COURTYARD BY MARRIOTT","","10200 CHAMPION FARMS DR","","LOUISVILLE","KY","40241","RETAIL-FOOD  10,000 SQ FT OR LESS","38.2967000","-85.5624000","2018-05-17 00:00:00","99","A","COURTYARD BY MARRIOTT",""
"97132","1380071","CON HUEVOS","","2339 FRANKFORT AVE","","LOUISVILLE","KY","40206","FOOD SERVICE","38.2537000","-85.8754000","2018-05-17 00:00:00","100","A","CON HUEVOS",""
"92095","1380103","MANGO'S MEXICAN GRILL","","4632 HENDRIK DR","","LOUISVILLE","KY","40299","FOOD SERVICE","38.1860000","-85.6086000","2018-05-17 00:00:00","99","A","MANGO'S MEXICAN GRILL",""
"75206","1384511","HOMEMADE ICE CREAM & PIE KITCHEN","","3737 LEXINGTON RD","","LOUISVILLE","KY","40207","FOOD SERVICE","38.2525000","-85.6590000","2018-06-04 00:00:00","93","A","HOMEMADE ICE CREAM & PIE KITCHEN",""
"91695","1384512","ZOE'S KITCHEN","","3723 LEXINGTON RD","","LOUISVILLE","KY","40207","FOOD SERVICE","38.7523000","-85.6592000","2018-06-04 00:00:00","98","A","ZOE'S KITCHEN",""
"79068","1386182","AFC SUSHI @ KROGER #753","","1265 GOSS AVE","","LOUISVILLE","KY","40217","FOOD SERVICE","38.2264000","-85.7306000","2018-06-08 00:00:00","98","A","AFC SUSHI @ KROGER #753",""
"34605","1386183","KROGER L-753","","1265 GOSS AVE","","LOUISVILLE","KY","40217","RETAIL-FOOD  10,001 SQ FT OR OVER","38.2264000","-85.7306000","2018-06-08 00:00:00","98","A","KROGER L-753",""
"50199","1386214","DISMAS CHARITIES","","1501 LYTLE ST","","LOUISVILLE","KY","40203","FOOD SERVICE","38.2616000","-85.7746000","2018-06-08 00:00:00","97","A","DISMAS CHARITIES",""
"30242","1386217","CURTIS MARKET","","2720 DUNCAN ST","","LOUISVILLE","KY","40212","RETAIL-FOOD  10,000 SQ FT OR LESS","38.2636000","-85.7967000","2018-06-08 00:00:00","89","C","CURTIS MARKET",""
"98756","1380119","QDOBA #2937","","4921 OUTER LOOP","","LOUISVILLE","KY","40219","FOOD SERVICE","38.1379000","-85.6663000","2018-05-17 00:00:00","97","A","QDOBA #2937",""
"94801","1380122","JIM PATTERSON STADIUM #2","","3015 S 3RD ST","","LOUISVILLE","KY","40208","FOOD SERVICE","38.2049000","-85.7639000","2018-05-17 00:00:00","98","A","JIM PATTERSON STADIUM #2",""
"33659","1380136","HOMEMADE ICE CREAM","","2525 BARDSTOWN RD","","LOUISVILLE","KY","40205","FOOD SERVICE","38.2227000","-85.6830000","2018-05-17 00:00:00","97","A","HOMEMADE ICE CREAM",""
"34213","1380137","PAPA JOHN'S #008","","2301 BARDSTOWN RD","","LOUISVILLE","KY","40205","FOOD SERVICE","38.2242000",".0000000","2018-05-17 00:00:00","99","A","PAPA JOHN'S #008",""
"59457","1380377","TUMBLEWEED","","9701 DIXIE HWY","","LOUISVILLE","KY","40272","FOOD SERVICE","38.1152000","-85.8601000","2018-05-17 00:00:00","","","TUMBLEWEED",""
"34897","1382782","FRISCH'S BIG BOY #153","","1710 LINCOLN AVE","","LOUISVILLE","KY","40213","FOOD SERVICE","38.1971000",".0000000","2018-05-16 00:00:00","","","FRISCH'S BIG BOY #153",""
"89948","1384603","MIAMI FOOD MARKET","","5307 S 3RD ST","","LOUISVILLE","KY","40214","RETAIL-FOOD  10,000 SQ FT OR LESS","38.1708000","-85.7677000","2018-06-04 00:00:00","97","A","MIAMI FOOD MARKET",""
"89948","1384604","MIAMI FOOD MARKET","","5307 S 3RD ST","","LOUISVILLE","KY","40214","RETAIL-FOOD  10,000 SQ FT OR LESS","38.1708000","-85.7677000","2018-06-04 00:00:00","99","","MIAMI FOOD MARKET",""
"55889","1384606","PAPA JOHN'S #22","","5010 PRESTON HWY","","LOUISVILLE","KY","40219","FOOD SERVICE","38.1748000","-85.7134000","2018-06-04 00:00:00","96","A","PAPA JOHN'S #22",""
"101735","1384608","SUBWAY #11525","","4945 BROWNSBORO RD","","LOUISVILLE","KY","40222","FOOD SERVICE","38.2833000","-85.6298000","2018-06-04 00:00:00","99","A","SUBWAY #11525",""
"77580","1384610","LONGHORN STEAKHOUSE #287","","9700 VON ALLMEN CT","","LOUISVILLE","KY","40241","FOOD SERVICE","38.3116000","-85.5736000","2018-06-04 00:00:00","97","A","LONGHORN STEAKHOUSE #287",""
"95809","1384612","IMPELLIZZERI'S","","4933 OLD BROWNSBORO RD","","LOUISVILLE","KY","40222","FOOD SERVICE","38.2673000","-85.6607000","2018-06-04 00:00:00","100","A","IMPELLIZZERI'S",""
"99951","1384613","INDI'S","","3353 FERN VALLEY RD","","LOUISVILLE","KY","40213","FOOD SERVICE","38.1570000","-85.7023000","2018-06-04 00:00:00","92","A","INDI'S",""
"104354","1384614","QUAIL CHASE GOLF CLUB","","7000 COOPER CHAPEL RD","","LOUISVILLE","KY","40229","FOOD SERVICE","38.1086000","-85.6475000","2018-06-04 00:00:00","100","A","QUAIL CHASE GOLF CLUB",""
"95650","1384646","LAUGHTER AND LULLABIES CHILD CARE","","5313 HAMES TRACE","","LOUISVILLE","KY","40291","FOOD SERVICE (DAY CARE / CHILD CARE CENTER","38.1654000","-85.6049000","2018-06-04 00:00:00","100","A","LAUGHTER AND LULLABIES CHILD CARE",""
"92897","1384648","QDOBA #2837","","6403 BARDSTOWN RD","","LOUISVILLE","KY","40291","FOOD SERVICE","38.1527000","-85.5983000","2018-06-04 00:00:00","96","A","QDOBA #2837",""
"30043","1386393","F&Y SUPERMARKET","","3801 W MARKET ST","","LOUISVILLE","KY","40212","RETAIL-FOOD  10,000 SQ FT OR LESS","38.2621000","-85.8123000","2018-05-22 00:00:00","","","F&Y SUPERMARKET",""
"71030","1386506","CARDINAL HALL OF FAME","","2745 CRITTENDEN DR","","LOUISVILLE","KY","40209","FOOD SERVICE","38.2037000","-85.7480000","2018-05-23 00:00:00","","","CARDINAL HALL OF FAME",""
"78298","1386526","SUBWAY","","3935 S 7TH ST","","LOUISVILLE","KY","40216","FOOD SERVICE","38.1926000","-85.8044000","2018-05-23 00:00:00","","","SUBWAY",""
"96907","1386527","CASH SAVER","","501 MT HOLLY RD","","FAIRDALE","KY","40118","RETAIL-FOOD  10,001 SQ FT OR OVER","38.1042000","-85.7565000","2018-05-23 00:00:00","","","CASH SAVER",""
"94341","1386543","JEWISH HOSPITAL MAIN KITCHEN","","200 ABRAHAM FLEXNER WAY","","LOUISVILLE","KY","40202","FOOD SERVICE","38.2494000","-85.7518000","2018-05-23 00:00:00","","","JEWISH HOSPITAL MAIN KITCHEN",""
"80097","1386550","WALMART #4524","","5360 DIXIE HWY","","LOUISVILLE","KY","40216","RETAIL-FOOD  10,001 SQ FT OR OVER","38.1573000","-85.8360000","2018-05-23 00:00:00","","","WALMART #4524",""
"33789","1386551","STEAK N SHAKE #708","","4913 DIXIE HWY","","LOUISVILLE","KY","40216","FOOD SERVICE","38.1692000","-85.8271000","2018-05-23 00:00:00","","","STEAK N SHAKE #708",""
"95358","1386632","FUN FOOD KITCHEN","","4104 MURPHY LN","","LOUISVILLE","KY","40241","FOOD SERVICE","38.3039000","-85.5339000","2018-06-11 00:00:00","95","A","FUN FOOD KITCHEN",""
"82842","1386634","ROOTIES SPORTS BAR & GRILLE","","12205 WESTPORT RD","","LOUISVILLE","KY","40245","FOOD SERVICE","38.3049000","-85.5413000","2018-06-11 00:00:00","97","A","ROOTIES SPORTS BAR & GRILLE",""
"105111","1379777","POPEYE'S","","7723 BARDSTOWN RD","","LOUISVILLE","KY","40291","FOOD SERVICE","38.1349000","-85.5793000","2018-05-14 00:00:00","100","","POPEYE'S",""
"33419","1383910","HUNTING CREEK POOL CONCESSION","","6807 FOXCRAFT RD","","PROSPECT","KY","40059","FOOD SERVICE","38.3448000","-85.6035000","2018-05-31 00:00:00","98","A","HUNTING CREEK POOL CONCESSION",""
"82610","1383919","KROGER L-780","","10645 DIXIE HWY","","LOUISVILLE","KY","40272","RETAIL-FOOD  10,001 SQ FT OR OVER","38.1002000","-85.8712000","2018-05-31 00:00:00","95","A","KROGER L-780",""
"102879","1384020","NINA'S ACADEMY","","687 S 38TH ST","","LOUISVILLE","KY","40211","FOOD SERVICE (DAY CARE / CHILD CARE CENTER","38.2508000","-85.8148000","2018-05-31 00:00:00","100","A","NINA'S ACADEMY",""
"84615","1384023","LITTLE SMILES LEARNING ACADEMY","","1367 S 28TH ST","","LOUISVILLE","KY","40211","FOOD SERVICE (DAY CARE / CHILD CARE CENTER","38.2344000","-85.8006000","2018-05-31 00:00:00","100","A","LITTLE SMILES LEARNING ACADEMY",""
"105268","1384154","LOUISVILLE DOWNTOWNER DELI","","428 W MARKET ST","","LOUISVILLE","KY","40202","FOOD SERVICE","38.2551000","-85.2580000","2018-05-29 00:00:00","96","","LOUISVILLE DOWNTOWNER DELI",""
"90826","1379866","BURGER KING #891","","11300 PRESTON HWY","","LOUISVILLE","KY","40229","FOOD SERVICE","38.8610000","-85.6688000","2018-05-16 00:00:00","94","A","BURGER KING #891",""
"69999","1379876","PENN STATION #8","","2017 S HURSTBOURNE PKWY","","LOUISVILLE","KY","40220","FOOD SERVICE","38.2168000","-85.5870000","2018-05-11 00:00:00","100","A","PENN STATION #8",""
"99589","1379879","FESTIVAL CUISINE & SPIRITS","","473 ROBERTS AVE","","LOUISVILLE","KY","40214","CATERERS","38.1534000","-85.7589000","2018-05-16 00:00:00","98","A","FESTIVAL CUISINE & SPIRITS",""
"90869","1379885","BURGER KING #889","","2700 CRITTENDEN DR","","LOUISVILLE","KY","40209","FOOD SERVICE","38.2050000","-85.7510000","2018-05-16 00:00:00","96","A","BURGER KING #889",""
"103872","1379949","NOUVELLE","","214 S CLAY ST","","LOUISVILLE","KY","40202","FOOD SERVICE","38.2528000","-85.7403000","2018-05-16 00:00:00","100","A","NOUVELLE",""
"34897","1380005","FRISCH'S BIG BOY #153","","1710 LINCOLN AVE","","LOUISVILLE","KY","40213","FOOD SERVICE","38.1971000",".0000000","2018-05-16 00:00:00","76","C","FRISCH'S BIG BOY #153",""
"104807","1380062","FAIRFIELD INN & SUITES TOWNEPLACE SUITES","","10110 CHAMPION FARMS DR","","LOUISVILLE","KY","40241","RETAIL-FOOD  10,000 SQ FT OR LESS","38.2966000","-85.5630000","2018-05-17 00:00:00","100","A","FAIRFIELD INN & SUITES TOWNEPLACE SUITES",""
"103888","1381553","WINGATE LOUISVILLE FAIR & EXPO CENTER","","3200 KEMMONS DR","","LOUISVILLE","KY","40218","RETAIL-FOOD  10,000 SQ FT OR LESS","38.2047000","-85.6808000","2018-05-23 00:00:00","93","A","WINGATE LOUISVILLE FAIR & EXPO CENTER",""
"99017","1381555","SCARLET'S BAKERY","","741 E OAK ST","","LOUISVILLE","KY","40203","FOOD SERVICE","38.2336000","-85.7416000","2018-05-23 00:00:00","88","C","SCARLET'S BAKERY",""
"33714","1385612","BEST STOP FOOD MART","","9200 BLUE LICK RD","","LOUISVILLE","KY","40229","PRE-PACKAGED RETAIL","38.1160000","-85.6899000","2018-05-24 00:00:00","","","BEST STOP FOOD MART",""
"98780","1385621","KY FOOD MAXX","","800 E KENTUCKY ST","","LOUISVILLE","KY","40202","RETAIL-FOOD  10,000 SQ FT OR LESS",".0000000",".0000000","2018-06-06 00:00:00","89","","KY FOOD MAXX",""
"75793","1385622","CHILI'S","","3623 BARDSTOWN RD","","LOUISVILLE","KY","40218","FOOD SERVICE","38.1995000","-85.6600000","2018-06-06 00:00:00","87","C","CHILI'S",""
"33245","1385705","CHINA INN","","1925 S 4TH ST","","LOUISVILLE","KY","40202","FOOD SERVICE","38.2198000","-85.7626000","2018-06-05 00:00:00","96","A","CHINA INN",""
"96941","1385716","LYNN'S CAFE","","1839 FRANKFORT AVE","","LOUISVILLE","KY","40206","FOOD SERVICE","38.2577000","-85.7141000","2018-06-07 00:00:00","100","A","LYNN'S CAFE",""
"67341","1385777","INDI'S","","5009 S 3RD ST","","LOUISVILLE","KY","40214","FOOD SERVICE","38.1741000","-85.7668000","2018-06-07 00:00:00","94","A","INDI'S",""
"105179","1381634","HOME 2 SUITES AIRPORT","","3000 CRITTENDEN DR","","LOUISVILLE","KY","40209","RETAIL-FOOD  10,000 SQ FT OR LESS","38.2003000","-85.7518000","2018-05-17 00:00:00","100","","HOME 2 SUITES AIRPORT",""
"34687","1381719","SOUTH PARK COUNTRY CLUB","","915 SOUTH PARK RD","","LOUISVILLE","KY","40118","FOOD SERVICE","38.1053000","-85.7250000","2018-05-23 00:00:00","95","A","SOUTH PARK COUNTRY CLUB",""
"100980","1381722","SHOP & GO","","3901 TAYLOR BLVD","","LOUISVILLE","KY","40215","RETAIL-FOOD  10,000 SQ FT OR LESS","38.1874000","-85.7831000","2018-05-23 00:00:00","95","","SHOP & GO",""
"30399","1381731","BIG LOTS #175","","5318 BARDSTOWN RD","","LOUISVILLE","KY","40291","PRE-PACKAGED RETAIL","38.1664000","-85.6047000","2018-05-23 00:00:00","100","","BIG LOTS #175",""
"68592","1381740","WHITE CASTLE #36","","12006 DIXIE HWY","","LOUISVILLE","KY","40272","FOOD SERVICE","38.8110000","-85.8830000","2018-05-22 00:00:00","95","A","WHITE CASTLE #36",""
"57727","1381790","WINNER'S CIRCLE SUITE KITCHEN","","700 CENTRAL AVE","","LOUISVILLE","KY","40208","FOOD SERVICE","38.2042000","-85.7718000","2018-05-18 00:00:00","","","WINNER'S CIRCLE SUITE KITCHEN",""
"103059","1381794","CHINA CHEF","","7813 BEULAH CHURCH RD","","LOUISVILLE","KY","40228","FOOD SERVICE","38.1357000","-85.6126000","2018-05-23 00:00:00","96","A","CHINA CHEF",""
"91707","1378361","O'CHARLEY'S","","1901 S HURSTBOURNE PKWY","","LOUISVILLE","KY","40220","FOOD SERVICE","38.2181000","-85.5813000","2018-05-10 00:00:00","96","A","O'CHARLEY'S",""
"91919","1378432","KEM'S CAFE","","447 FARMINGTON AVE","","LOUISVILLE","KY","40209","RETAIL-FOOD  10,000 SQ FT OR LESS","38.2010000","-85.7522000","2018-05-10 00:00:00","91","A","KEM'S CAFE",""
"91919","1378433","KEM'S CAFE","","447 FARMINGTON AVE","","LOUISVILLE","KY","40209","RETAIL-FOOD  10,000 SQ FT OR LESS","38.2010000","-85.7522000","2018-05-10 00:00:00","100","","KEM'S CAFE",""
"51009","1378442","BARRELL OF FUN ICE CREAM","","9421 SMYRNA RD","","LOUISVILLE","KY","40229","FOOD SERVICE","38.1108000","-85.6447000","2018-05-10 00:00:00","100","A","BARRELL OF FUN ICE CREAM",""
"82908","1378449","SAV-A-STEP","","13702 LAGRANGE RD","","LOUISVILLE","KY","40245","RETAIL-FOOD  10,000 SQ FT OR LESS","38.3013000","-85.4994000","2018-05-10 00:00:00","99","","SAV-A-STEP",""
"105272","1384197","6 PACK VOLLEYBALL","","4026 S 3RD ST","","LOUISVILLE","KY","40214","STATIONARY RESTRICTED CONCESSON","38.1972000","-85.7655000","2018-05-29 00:00:00","98","","6 PACK VOLLEYBALL",""
"95300","1384237","KY KINGDOM TRIPLE TREATS","","937 PHILLIPS LN","","LOUISVILLE","KY","40209","FOOD SERVICE","38.2003000","-85.7407000","2018-06-01 00:00:00","98","A","KY KINGDOM TRIPLE TREATS",""
"95294","1384238","KY KINGDOM AUNT B'S / KING LOUIE'S","","937 PHILLIPS LN","","LOUISVILLE","KY","40209","FOOD SERVICE","38.2003000","-85.7407000","2018-06-01 00:00:00","99","A","KY KINGDOM AUNT B'S / KING LOUIE'S",""
"96091","1384243","ARCTIC SCOOP","","841 S HURSTBOURNE PKWY","","LOUISVILLE","KY","40222","FOOD SERVICE","38.2346000","-85.5769000","2018-06-01 00:00:00","99","A","ARCTIC SCOOP",""
"92726","1384259","ACAPULCO","","5404 ANTLE DR","","LOUISVILLE","KY","40229","FOOD SERVICE","38.8710000","-85.6655000","2018-06-01 00:00:00","92","A","ACAPULCO",""
"80098","1384287","WALMART #3610","","7100 RAGGARD RD","","LOUISVILLE","KY","40216","RETAIL-FOOD  10,001 SQ FT OR OVER","38.1715000","-85.8703000","2018-06-01 00:00:00","94","A","WALMART #3610",""
"101399","1384298","FLOR DE JALISCO","","2900 S 7TH ST","","LOUISVILLE","KY","40216","FOOD SERVICE","38.2079000","-85.7915000","2018-06-03 00:00:00","94","A","FLOR DE JALISCO",""
"104686","1384306","MIZZ PRETTY PLATE","","1800 W MUHAMMAD ALI BLVD","","LOUISVILLE","KY","40203","RETAIL BAKERY","38.2535000","-85.7809000","2018-06-01 00:00:00","100","","MIZZ PRETTY PLATE",""
"99707","1380123","EHRLER'S","","3015 S 2ND ST","","LOUISVILLE","KY","40208","FOOD SERVICE","38.2047000","-85.7631000","2018-05-17 00:00:00","98","A","EHRLER'S",""
"80291","1380132","SIGNATURE HEALTH CARE OF SOUTH LOUISVILLE","","1120 CRISTLAND RD","","LOUISVILLE","KY","40214","FOOD SERVICE (HOSPITAL / NURSING HOME","38.1424000","-85.7896000","2018-05-17 00:00:00","100","A","SIGNATURE HEALTH CARE OF SOUTH LOUISVILLE",""
"59457","1380160","TUMBLEWEED","","9701 DIXIE HWY","","LOUISVILLE","KY","40272","FOOD SERVICE","38.1152000","-85.8601000","2018-05-17 00:00:00","95","A","TUMBLEWEED",""
"101740","1380173","LUCKY STAR PETRO","","4527 BARDSTOWN RD","","LOUISVILLE","KY","40218","RETAIL-FOOD  10,000 SQ FT OR LESS","38.1819000","-85.6270000","2018-05-14 00:00:00","97","","LUCKY STAR PETRO",""
"57936","1380222","TONY BOOM BOZZ","","1448 BARDSTOWN RD","","LOUISVILLE","KY","40204","FOOD SERVICE","38.2319000","-85.7101000","2018-05-11 00:00:00","91","C","TONY BOOM BOZZ",""
"84369","1382003","NORTON BROWNSBORO HOSPITAL","","4960 NORTON HEALTHCARE BLVD","","LOUISVILLE","KY","40241","RETAIL-FOOD  10,000 SQ FT OR LESS","38.3138000","-85.5757000","2018-05-24 00:00:00","100","","NORTON BROWNSBORO HOSPITAL",""
"96157","1382005","L&J CAFE","","6017 TIMBER RIDGE DR","","PROSPECT","KY","40059","FOOD SERVICE","38.3392000","-85.6233000","2018-05-24 00:00:00","97","A","L&J CAFE",""
"33447","1382024","KROGER L-339","","2440 BARDSTOWN RD","","LOUISVILLE","KY","40205","RETAIL-FOOD  10,001 SQ FT OR OVER","38.2232000","-85.6875000","2018-05-23 00:00:00","95","A","KROGER L-339",""
"89685","1382032","SEIDENFADEN'S TAVERN","","1134 E BRECKINRIDGE ST","","LOUISVILLE","KY","40204","FOOD SERVICE","38.2392000","-85.7328000","2018-05-24 00:00:00","100","A","SEIDENFADEN'S TAVERN",""
"87268","1382033","CIRCLE K #4703325","","9737 3RD STREET RD","","LOUISVILLE","KY","40272","RETAIL-FOOD  10,000 SQ FT OR LESS","38.1151000","-85.8331000","2018-05-24 00:00:00","96","A","CIRCLE K #4703325",""
"85493","1378464","SHORTY'S FOOD MART #3","","2133 DIXIE HWY","","LOUISVILLE","KY","40210","RETAIL-FOOD  10,000 SQ FT OR LESS","38.2195000","-85.7940000","2018-05-10 00:00:00","94","A","SHORTY'S FOOD MART #3",""
"41070","1378480","BREWSKEES","","5507 VALLEY STATION RD","","LOUISVILLE","KY","40272","FOOD SERVICE","38.1077000",".0000000","2018-05-10 00:00:00","94","A","BREWSKEES",""
"96245","1378518","STARBUCKS","","101 S 5TH ST","","LOUISVILLE","KY","40202","FOOD SERVICE","38.2561000","-85.7578000","2018-05-10 00:00:00","100","A","STARBUCKS",""
"83501","1378633","PROSPECT PARTY CENTER","","9521 US HWY 42","","PROSPECT","KY","40059","RETAIL-FOOD  10,000 SQ FT OR LESS","38.3396000","-85.5565000","2018-05-11 00:00:00","98","","PROSPECT PARTY CENTER",""
"33694","1378650","MORE SHENANIGAN'S IRISH","","4521 BARDSTOWN RD","","LOUISVILLE","KY","40218","FOOD SERVICE","38.1823000",".0000000","2018-05-10 00:00:00","96","A","MORE SHENANIGAN'S IRISH",""
"97522","1384354","KY KINGDOM TACO TEQUILA","","937 PHILLIPS LN","","LOUISVILLE","KY","40209","FOOD SERVICE","38.1967000","-85.7390000","2018-06-01 00:00:00","98","A","KY KINGDOM TACO TEQUILA",""
"95274","1384357","KY KINGDOM COMMISSARY","","937 PHILLIPS LN","","LOUISVILLE","KY","40209","FOOD SERVICE","38.2003000","-85.7407000","2018-06-01 00:00:00","96","A","KY KINGDOM COMMISSARY",""
"65215","1380336","JUMBO BUFFET","","2731 S HURSTBOURNE PKWY","","LOUISVILLE","KY","40220","FOOD SERVICE","38.2112000","-85.5957000","2018-05-18 00:00:00","88","A","JUMBO BUFFET",""
"102583","1380398","BURGER KING #22793","","9512 PRESTON HWY","","LOUISVILLE","KY","40229","FOOD SERVICE","38.1130000","-85.6758000","2018-05-18 00:00:00","98","A","BURGER KING #22793",""
"95712","1380439","SKATE ODYSSEY LLC","","7846 DIXIE HWY","","LOUISVILLE","KY","40258","FOOD SERVICE","38.1372000","-85.8434000","2018-05-18 00:00:00","100","A","SKATE ODYSSEY LLC",""
"35204","1382160","DOMINO'S PIZZA #1423","","2400 BROWNSBORO RD","","LOUISVILLE","KY","40206","FOOD SERVICE","38.2580000","-85.7014000","2018-05-17 00:00:00","","","DOMINO'S PIZZA #1423",""
"97524","1382161","MCDONALD'S","","2500 DIXIE HWY","","LOUISVILLE","KY","40216","FOOD SERVICE","38.2145000","-85.7966000","2018-05-18 00:00:00","","","MCDONALD'S",""
"94094","1382297","EL MOLCAJETE","","8106 PRESTON HWY","","LOUISVILLE","KY","40219","FOOD SERVICE","38.1343000","-85.6846000","2018-05-25 00:00:00","91","A","EL MOLCAJETE",""
"103824","1378668","INDI'S","","3820 W MARKET ST","","LOUISVILLE","KY","40212","FOOD SERVICE","38.2616000","-84.8531000","2018-05-11 00:00:00","98","A","INDI'S",""
"104910","1378675","RIVERPORT GRUB & PUB","","7017 GLOBAL DR","","LOUISVILLE","KY","40258","FOOD SERVICE","38.1397000","-85.8887000","2018-05-11 00:00:00","96","A","RIVERPORT GRUB & PUB",""
"87381","1378752","PANERA BREAD","","1801 RUDY LN","","LOUISVILLE","KY","40207","FOOD SERVICE","38.2785000","-85.6381000","2018-05-11 00:00:00","98","","PANERA BREAD",""
"92373","1384647","HIBACHI SUSHI BUFFET","","5316 BARDSTOWN RD","","LOUISVILLE","KY","40291","FOOD SERVICE","38.1663000","-85.6049000","2018-06-04 00:00:00","97","A","HIBACHI SUSHI BUFFET",""
"92309","1380533","PARLAY","","700 CENTRAL AVE","","LOUISVILLE","KY","40208","RETAIL-FOOD  10,000 SQ FT OR LESS","38.2023000","-85.7701000","2018-05-18 00:00:00","100","","PARLAY",""
"74264","1380594","IN SEAT 3RD FLOOR","","700 CENTRAL AVE","","LOUISVILLE","KY","40208","FOOD SERVICE","38.2042000","-85.7718000","2018-05-18 00:00:00","100","A","IN SEAT 3RD FLOOR",""
"33291","1380596","FOOD COURT","","700 CENTRAL AVE","","LOUISVILLE","KY","40208","FOOD SERVICE","38.2042000","-85.7718000","2018-05-18 00:00:00","97","A","FOOD COURT",""
"61470","1382301","NEW SILVER HEIGHTS BINGO","","9206 BLUE LICK RD","","LOUISVILLE","KY","40229","FOOD SERVICE","38.1153000","-85.6905000","2018-05-25 00:00:00","96","A","NEW SILVER HEIGHTS BINGO",""
"94977","1382314","DINO'S BAKERY","","4162 BARDSTOWN RD","","LOUISVILLE","KY","40218","RETAIL-FOOD  10,000 SQ FT OR LESS","38.1888000","-85.6430000","2018-05-24 00:00:00","95","A","DINO'S BAKERY",""
"46435","1378945","ST. MATTHEWS LITTLE LEAGUE","","220 TEN PIN LN","","LOUISVILLE","KY","40207","FOOD SERVICE","38.2516000","-85.6241000","2018-05-14 00:00:00","99","A","ST. MATTHEWS LITTLE LEAGUE",""
"90033","1378951","MALE HIGH SCHOOL FOOTBALL CONCESSION","","4400 PRESTON HWY","","LOUISVILLE","KY","40213","FOOD SERVICE","38.1844000","-85.7226000","2018-05-14 00:00:00","100","A","MALE HIGH SCHOOL FOOTBALL CONCESSION",""
"100780","1378952","PAUL COX STADIUM CONCESSION","","425 KENWOOD DR","","LOUISVILLE","KY","40214","FOOD SERVICE","38.1625000","-85.7737000","2018-05-14 00:00:00","100","A","PAUL COX STADIUM CONCESSION",""
"93102","1378962","DOLLAR TREE #5138","","3600 SPRINGHURST BLVD","","LOUISVILLE","KY","40241","PRE-PACKAGED RETAIL","38.2996000","-85.5608000","2018-05-14 00:00:00","98","","DOLLAR TREE #5138",""
"56579","1378971","BREADWORKS","","2204 DUNDEE RD","","LOUISVILLE","KY","40205","FOOD SERVICE","38.2242000","-85.6941000","2018-05-11 00:00:00","100","A","BREADWORKS",""
"101746","1378972","COLD STONE CREAMERY","","976 BRECKENRIDGE LN","","LOUISVILLE","KY","40207","FOOD SERVICE","38.1350000","-85.3830000","2018-05-11 00:00:00","92","A","COLD STONE CREAMERY",""
"99374","1378974","RAISING CANE'S","","1250 BARDSTOWN RD","","LOUISVILLE","KY","40204","FOOD SERVICE","38.2354000","-85.7172000","2018-05-11 00:00:00","96","A","RAISING CANE'S",""
"101318","1378984","HOMEMADE ICE CREAM & PIE KITCHEN","","4810 DIXIE HWY","","LOUISVILLE","KY","40216","FOOD SERVICE","38.1727700","-85.8256500","2018-05-14 00:00:00","97","A","HOMEMADE ICE CREAM & PIE KITCHEN",""
"104835","1379009","TIM TAM TAVERN","","1022 CLARKS LN","","LOUISVILLE","KY","40217","FOOD SERVICE","38.2190000","-85.7300000","2018-05-14 00:00:00","98","A","TIM TAM TAVERN",""
"95809","1384950","IMPELLIZZERI'S","","4933 OLD BROWNSBORO RD","","LOUISVILLE","KY","40222","FOOD SERVICE","38.2673000","-85.6607000","2018-05-30 00:00:00","","","IMPELLIZZERI'S",""
"58297","1385060","EP TOM SAWYER POOL CONCESSION","","3000 FREYS HILL RD","","LOUISVILLE","KY","40223","STATIONARY RESTRICTED CONCESSON","38.2819000","-85.5596000","2018-06-05 00:00:00","94","","EP TOM SAWYER POOL CONCESSION",""
"72741","1385126","PIZZA HUT","","8131 BARDSTOWN RD","","LOUISVILLE","KY","40291","FOOD SERVICE","38.1292000","-85.5751000","2018-06-05 00:00:00","96","A","PIZZA HUT",""
"95651","1385141","RECOVERY ZONE","","708 MAGAZINE ST","","LOUISVILLE","KY","40202","FOOD SERVICE","38.2482000","-85.7632000","2018-06-04 00:00:00","98","A","RECOVERY ZONE",""
"30264","1380969","SPEEDWAY #5043","","4417 DIXIE HWY","","LOUISVILLE","KY","40216","RETAIL-FOOD  10,000 SQ FT OR LESS","38.1815000","-85.8153000","2018-05-21 00:00:00","100","A","SPEEDWAY #5043",""
"90698","1380984","JASMIN BAKERY","","2201 STEIER LN","","LOUISVILLE","KY","40218","FOOD SERVICE","38.1148000","-85.3940000","2018-05-18 00:00:00","96","A","JASMIN BAKERY",""
"45368","1380985","BOOTLEG BARBEQUE","","9704 BARDSTOWN RD","","LOUISVILLE","KY","40291","FOOD SERVICE","38.9930000","-85.5622000","2018-05-18 00:00:00","94","A","BOOTLEG BARBEQUE",""
"105179","1382704","HOME 2 SUITES AIRPORT","","3000 CRITTENDEN DR","","LOUISVILLE","KY","40209","RETAIL-FOOD  10,000 SQ FT OR LESS","38.2003000","-85.7518000","2018-05-17 00:00:00","","","HOME 2 SUITES AIRPORT",""
"31579","1382780","SPRINGHURST HEALTH & REHAB","","3001 N HURSTBOURNE PKWY","","LOUISVILLE","KY","40241","FOOD SERVICE (HOSPITAL / NURSING HOME","38.2907000","-85.5735000","2018-05-16 00:00:00","","","SPRINGHURST HEALTH & REHAB",""
"35180","1382781","CHECKS","","1101 E BURNETT AVE","","LOUISVILLE","KY","40217","FOOD SERVICE","38.2230000","-85.7385000","2018-05-16 00:00:00","","","CHECKS",""
"74258","1382787","CUBA FOOD MART","","5422 NEW CUT RD","","LOUISVILLE","KY","40214","RETAIL-FOOD  10,000 SQ FT OR LESS","38.1492000","-85.7765000","2018-05-29 00:00:00","100","","CUBA FOOD MART",""
"76476","1382788","STARBUCKS #10454","","4801 OUTER LOOP","","LOUISVILLE","KY","40219","FOOD SERVICE","38.1415000","-85.6708000","2018-05-29 00:00:00","99","A","STARBUCKS #10454",""
"35229","1382790","GREAT AMERICAN COOKIE","","4801 OUTER LOOP","","LOUISVILLE","KY","40219","RETAIL BAKERY","38.1415000","-85.6708000","2018-05-29 00:00:00","100","A","GREAT AMERICAN COOKIE",""
"105033","1379240","EHRLERS ICE CREAM","","201 E MAIN ST","","LOUISVILLE","KY","40202","FOOD SERVICE","38.2562000","-85.7496000","2018-05-14 00:00:00","98","A","EHRLERS ICE CREAM",""
"95790","1385405","RED LOBSTER","","4639 OUTER LOOP","","LOUISVILLE","KY","40219","FOOD SERVICE","38.1384000","-85.6771000","2018-06-06 00:00:00","98","A","RED LOBSTER",""
"105092","1385406","AFC SUSHI @ KROGER #366","","5001 MUD LN","","LOUISVILLE","KY","40229","FOOD SERVICE","38.8830000","-85.6701000","2018-06-06 00:00:00","98","A","AFC SUSHI @ KROGER #366",""
"93971","1381000","KATE'S DELI","","6400 DUTCHMANS PKWY","","LOUISVILLE","KY","40205","FOOD SERVICE","38.2308000","-85.6392000","2018-05-18 00:00:00","99","A","KATE'S DELI",""
"91938","1381020","RHYTHM FOOD MART","","801 VALLEY COLLEGE DR","","LOUISVILLE","KY","40272","RETAIL-FOOD  10,000 SQ FT OR LESS","38.1172000","-85.8442000","2018-05-21 00:00:00","96","A","RHYTHM FOOD MART",""
"86435","1381032","JERRY GREEN & FRIENDS","","2800 BRECKENRIDGE LN","","LOUISVILLE","KY","40220","FOOD SERVICE","38.2253000","-85.6361000","2018-05-21 00:00:00","100","A","JERRY GREEN & FRIENDS",""
"89360","1381057","FARM BOY","","1200 DIXIE HWY","","LOUISVILLE","KY","40210","RETAIL-FOOD  10,000 SQ FT OR LESS","38.2374000","-85.7869000","2018-05-21 00:00:00","94","A","FARM BOY",""
"33287","1381080","LEVY CD JOCKEY CLUB DELI","","700 CENTRAL AVE","","LOUISVILLE","KY","40208","FOOD SERVICE","38.2042000","-85.7718000","2018-05-18 00:00:00","97","A","LEVY CD JOCKEY CLUB DELI",""
"33295","1381081","LEVY CD MAIN KITCHEN","","700 CENTRAL AVE","","LOUISVILLE","KY","40208","FOOD SERVICE","38.2042000","-85.7718000","2018-05-18 00:00:00","95","A","LEVY CD MAIN KITCHEN",""
"78390","1382799","DAIRY MART","","2728 W MARKET ST","","LOUISVILLE","KY","40212","RETAIL-FOOD  10,000 SQ FT OR LESS","38.2594000","-85.7963000","2018-05-29 00:00:00","94","","DAIRY MART",""
"63932","1382806","CIRCLE K #4703304","","5414 VALLEY STATION RD","","LOUISVILLE","KY","40272","RETAIL-FOOD  10,000 SQ FT OR LESS","38.1066000",".0000000","2018-05-29 00:00:00","93","","CIRCLE K #4703304",""
"100655","1382808","JEFF'S BURGER SHACK","","14126 DIXIE HWY","","LOUISVILLE","KY","40272","FOOD SERVICE","38.5150000","-85.8952000","2018-05-29 00:00:00","100","A","JEFF'S BURGER SHACK",""
"34237","1382932","SPEEDWAY #9653","","1422 POPLAR LEVEL RD","","LOUISVILLE","KY","40217","RETAIL-FOOD  10,000 SQ FT OR LESS","38.2194000","-85.7291000","2018-05-29 00:00:00","95","A","SPEEDWAY #9653",""
"93246","1383051","FAMILY DOLLAR #20926","","2501 DIXIE HWY","","LOUISVILLE","KY","40216","PRE-PACKAGED RETAIL","38.2150000","-85.7954000","2018-05-29 00:00:00","96","","FAMILY DOLLAR #20926",""
"77885","1379513","EL NOPAL","","6521 PARAMOUNT PARK DR","","LOUISVILLE","KY","40213","FOOD SERVICE","38.1558000","-85.7121000","2018-05-15 00:00:00","96","A","EL NOPAL",""
"89866","1379533","RECIPERE CAFE","","2100 GARDINER LN","","LOUISVILLE","KY","40205","PRE-PACKAGED RETAIL","38.2106000","-85.7450000","2018-05-15 00:00:00","98","","RECIPERE CAFE",""
"98787","1379538","TABLE","","1800 PORTLAND AVE","","LOUISVILLE","KY","40203","FOOD SERVICE","38.2645000","-85.7776000","2018-05-15 00:00:00","100","A","TABLE",""
"102330","1379539","FARM TO FORK","","2425 PORTLAND AVE","","LOUISVILLE","KY","40212","FOOD SERVICE","38.2706000","-85.7883000","2018-05-15 00:00:00","100","A","FARM TO FORK",""
"104625","1379540","MARKET ZONE","","118 S 26TH ST","","LOUISVILLE","KY","40212","PRE-PACKAGED RETAIL","38.2600000","-85.7938000","2018-05-15 00:00:00","93","","MARKET ZONE",""
"100859","1385421","AFC SUSHI @ KROGER #785","","4915 DIXIE HWY","","LOUISVILLE","KY","40216","FOOD SERVICE",".0000000",".0000000","2018-06-06 00:00:00","100","A","AFC SUSHI @ KROGER #785",""
"101402","1385422","BABIE BAC'Z, LLC","","8533 TERRY RD","","LOUISVILLE","KY","40258","FOOD SERVICE",".0000000",".0000000","2018-06-06 00:00:00","100","A","BABIE BAC'Z, LLC",""
"93455","1385480","PRECIOUS IN HIS SIGHTS","","2716 CRUMS LN","","LOUISVILLE","KY","40216","FOOD SERVICE (DAY CARE / CHILD CARE CENTER","38.1950000","-85.8259000","2018-06-06 00:00:00","96","A","PRECIOUS IN HIS SIGHTS",""
"95126","1381226","AFC SUSHI @ KROGER #346","","3039 BRECKENRIDGE LN","","LOUISVILLE","KY","40220","FOOD SERVICE","38.2177000","-85.3660000","2018-05-22 00:00:00","100","A","AFC SUSHI @ KROGER #346",""
"102331","1381289","SULLIVAN'S TAP HOUSE","","3929 SHELBYVILLE RD","","LOUISVILLE","KY","40207","FOOD SERVICE","38.2530000","-85.6538000","2018-05-21 00:00:00","90","A","SULLIVAN'S TAP HOUSE",""
"65171","1381294","RESIDENCE INN","","3500 SPRINGHURST COMMONS DR","","LOUISVILLE","KY","40241","RETAIL-FOOD  10,000 SQ FT OR LESS","38.2971000","-85.5614000","2018-05-22 00:00:00","96","","RESIDENCE INN",""
"83344","1381323","QUILLS COFFEE","","930 BAXTER AVE","","LOUISVILLE","KY","40204","FOOD SERVICE","38.2230000","-85.6847000","2018-05-22 00:00:00","97","A","QUILLS COFFEE",""
"105242","1383244","EL RINCONCITO","","4806 BARDSTOWN RD","","LOUISVILLE","KY","40291","FOOD SERVICE","38.1778000","-85.6216000","2018-05-22 00:00:00","100","","EL RINCONCITO",""
"36536","1383265","SPEEDWAY #9662","","4300 CRITTENDEN DR","","LOUISVILLE","KY","40209","RETAIL-FOOD  10,000 SQ FT OR LESS","38.1930000","-85.7513000","2018-05-30 00:00:00","98","A","SPEEDWAY #9662",""
"83581","1379636","FRAZIER  HISTORY MUSEUM","","829 W MAIN ST","","LOUISVILLE","KY","40202","FOOD SERVICE","38.2574000","-85.7635000","2018-05-15 00:00:00","96","A","FRAZIER  HISTORY MUSEUM",""
"105097","1379755","GREAT CHINA CAFE","","10494 WESTPORT RD","","LOUISVILLE","KY","40241","FOOD SERVICE","38.2935000","-85.5581000","2018-05-11 00:00:00","100","","GREAT CHINA CAFE",""
"51670","1385778","THAI CAFE","","2226 HOLIDAY MANOR CENTER","","LOUISVILLE","KY","40222","FOOD SERVICE","38.2827000",".0000000","2018-06-07 00:00:00","98","A","THAI CAFE",""
"94568","1385795","OSAKA JAPAN ONE","","4819 DIXIE HWY","","LOUISVILLE","KY","40216","FOOD SERVICE","38.1719000","-85.5695000","2018-06-07 00:00:00","97","A","OSAKA JAPAN ONE",""
"34692","1378435","KENBOWL LANES","","7021 SOUTHSIDE DR","","LOUISVILLE","KY","40214","FOOD SERVICE","38.1548000","-85.7643000","2018-05-10 00:00:00","99","A","KENBOWL LANES",""
"86320","1378436","TRUNG NGUYEN CAFE","","284 EVANGELINE AVE","","LOUISVILLE","KY","40214","FOOD SERVICE","38.1604000","-85.7638000","2018-05-10 00:00:00","92","A","TRUNG NGUYEN CAFE",""
"70063","1378438","TARGET PIZZA HUT EXPRESS","","7311 JEFFERSON BLVD","","LOUISVILLE","KY","40219","RETAIL-FOOD  10,001 SQ FT OR OVER","38.1461000","-85.6731000","2018-05-10 00:00:00","97","A","TARGET PIZZA HUT EXPRESS",""
"70063","1378439","TARGET PIZZA HUT EXPRESS","","7311 JEFFERSON BLVD","","LOUISVILLE","KY","40219","RETAIL-FOOD  10,001 SQ FT OR OVER","38.1461000","-85.6731000","2018-05-10 00:00:00","100","","TARGET PIZZA HUT EXPRESS",""
"101541","1383275","CHEDDAR'S SCRATCH KITCHEN #2142","","3521 OUTER LOOP","","LOUISVILLE","KY","40219","FOOD SERVICE","38.1370000","-85.6962000","2018-05-30 00:00:00","93","A","CHEDDAR'S SCRATCH KITCHEN #2142",""
"104354","1383276","QUAIL CHASE GOLF CLUB","","7000 COOPER CHAPEL RD","","LOUISVILLE","KY","40229","FOOD SERVICE","38.1086000","-85.6475000","2018-05-30 00:00:00","79","C","QUAIL CHASE GOLF CLUB",""
"98686","1383284","GATTI 'S PIZZA","","10035 DIXIE HWY","","LOUISVILLE","KY","40272","FOOD SERVICE","38.1086000","-85.8640000","2018-05-30 00:00:00","96","A","GATTI 'S PIZZA",""
"90727","1379843","HOME GOODS","","4201 TOWNE CENTER DR","","LOUISVILLE","KY","40241","PRE-PACKAGED RETAIL","38.2970000","-85.5550000","2018-05-16 00:00:00","100","","HOME GOODS",""
"99748","1379868","JIMMY JOHN'S","","7500 PRESTON HWY","","LOUISVILLE","KY","40219","FOOD SERVICE","38.1430000","-85.6897000","2018-05-16 00:00:00","99","A","JIMMY JOHN'S",""
"40488","1379872","KADER'S MARKET","","4100 W MUHAMMAD ALI BLVD","","LOUISVILLE","KY","40212","RETAIL-FOOD  10,000 SQ FT OR LESS","38.2578000","-85.8188000","2018-05-16 00:00:00","98","","KADER'S MARKET",""
"71011","1379877","COLD STONE CREAMERY","","2015 S HURSTBOURNE PKWY","","LOUISVILLE","KY","40220","FOOD SERVICE","38.2168000","-85.5869000","2018-05-11 00:00:00","100","A","COLD STONE CREAMERY",""
"82716","1379887","CHINA COAST","","4954 MANSLICK RD","","LOUISVILLE","KY","40216","FOOD SERVICE","38.1718000","-85.7978000","2018-05-16 00:00:00","95","A","CHINA COAST",""
"88819","1380006","BARRET BAR","","1012 BARRET AVE","","LOUISVILLE","KY","40204","FOOD SERVICE","38.1420000","-85.4345000","2018-05-16 00:00:00","94","C","BARRET BAR",""
"84446","1385984","LOU. METRO YOUTH CENTER C/O MICHELLE SHARP","","720 W JEFFERSON ST","","LOUISVILLE","KY","40202","CONFINEMENT FACILITY FOOD SERVICE","38.2544000","-85.7623000","2018-06-07 00:00:00","","","LOU. METRO YOUTH CENTER C/O MICHELLE SHARP",""
"99345","1386037","PLEASE & THANK YOU","","2341 FRANKFORT AVE","","LOUISVILLE","KY","40206","RETAIL-FOOD  10,000 SQ FT OR LESS","38.2537000","-85.7014000","2018-06-08 00:00:00","100","A","PLEASE & THANK YOU",""
"66108","1378473","SHAWNEE COMPLEX","","230 SOUTHWESTERN PKWY","","LOUISVILLE","KY","40212","FOOD SERVICE","38.2644000",".0000000","2018-05-10 00:00:00","100","A","SHAWNEE COMPLEX",""
"95132","1378564","WEI WEI CHINESE EXPRESS","","526 S 5TH ST","","LOUISVILLE","KY","40202","FOOD SERVICE","38.2504000","-85.7598000","2018-05-10 00:00:00","91","A","WEI WEI CHINESE EXPRESS",""
"102017","1378569","MERCURY BALLROOM","","611 S 4TH ST","","LOUISVILLE","KY","40202","FOOD SERVICE","38.2481000","-85.7576000","2018-05-10 00:00:00","99","A","MERCURY BALLROOM",""
"35027","1378618","VALU MARKET","","5301 MITSCHER AVE","","LOUISVILLE","KY","40214","RETAIL-FOOD  10,001 SQ FT OR OVER","38.1714000","-85.7701000","2018-05-11 00:00:00","98","","VALU MARKET",""
"83501","1378632","PROSPECT PARTY CENTER","","9521 US HWY 42","","PROSPECT","KY","40059","RETAIL-FOOD  10,000 SQ FT OR LESS","38.3396000","-85.5565000","2018-05-11 00:00:00","98","A","PROSPECT PARTY CENTER",""
"89891","1378682","QUILLS COFFEE","","327 W CARDINAL BLVD","","LOUISVILLE","KY","40208","FOOD SERVICE","38.2207000","-85.7616000","2018-05-11 00:00:00","98","A","QUILLS COFFEE",""
"82250","1380061","HILTON GARDEN INN","","9850 PARK PLAZA AVE","","LOUISVILLE","KY","40241","FOOD SERVICE","38.3112000","-85.5802000","2018-05-17 00:00:00","95","A","HILTON GARDEN INN",""
"79497","1380120","EAST CHINA","","5621 OUTER LOOP","","LOUISVILLE","KY","40219","FOOD SERVICE","38.1396000","-85.6563000","2018-05-17 00:00:00","97","A","EAST CHINA",""
"101740","1380166","LUCKY STAR PETRO","","4527 BARDSTOWN RD","","LOUISVILLE","KY","40218","RETAIL-FOOD  10,000 SQ FT OR LESS","38.1819000","-85.6270000","2018-05-14 00:00:00","93","A","LUCKY STAR PETRO",""
"98939","1380177","YOGI MINIMART","","6620 SIX MILE LN","","LOUISVILLE","KY","40218","PRE-PACKAGED RETAIL","38.1972000","-85.6291000","2018-05-17 00:00:00","94","A","YOGI MINIMART",""
"96839","1380335","FIRST WATCH","","201 S HURSTBOURNE PKWY","","LOUISVILLE","KY","40222","FOOD SERVICE","38.2444000","-85.5761000","2018-05-18 00:00:00","100","A","FIRST WATCH",""
"34233","1380399","HOLY SMOKES BBQ","","7508 PRESTON HWY","","LOUISVILLE","KY","40219","FOOD SERVICE","38.1423000","-85.6895000","2018-05-18 00:00:00","94","A","HOLY SMOKES BBQ",""
"32609","1380437","CAPTAIN D'S #3532","","10101 DIXIE HWY","","LOUISVILLE","KY","40272","FOOD SERVICE","38.1088000","-85.8654000","2018-05-18 00:00:00","93","A","CAPTAIN D'S #3532",""
"74263","1380461","TURF WINN KITCHEN","","700 CENTRAL AVE","","LOUISVILLE","KY","40208","FOOD SERVICE","38.2042000","-85.7718000","2018-05-18 00:00:00","99","A","TURF WINN KITCHEN",""
"103993","1380475","MCDONALD'S #1733","","4445 CANE RUN RD","","LOUISVILLE","KY","40216","FOOD SERVICE","38.1955000","-85.8417000","2018-05-18 00:00:00","95","A","MCDONALD'S #1733",""
"103972","1380577","KFC","","3280 TAYLOR BLVD","","LOUISVILLE","KY","40215","FOOD SERVICE","38.2029000","-85.7812000","2018-05-15 00:00:00","99","A","KFC",""
"103966","1380579","G&J","","1100 S 1ST ST","","LOUISVILLE","KY","40203","RETAIL-FOOD  10,000 SQ FT OR LESS","38.2366000","-85.7552000","2018-05-16 00:00:00","100","","G&J",""
"102176","1380597","NORTHEAST SPORTS BAR KITCHEN","","700 CENTRAL AVE","","LOUISVILLE","KY","40208","FOOD SERVICE","38.2040000","-85.7721000","2018-05-18 00:00:00","100","A","NORTHEAST SPORTS BAR KITCHEN",""
"89909","1380882","EAGLE PUB","","9802 BUNSEN PKWY","","LOUISVILLE","KY","40299","FOOD SERVICE","38.2162000","-85.5760000","2018-05-21 00:00:00","100","A","EAGLE PUB",""
"30264","1380970","SPEEDWAY #5043","","4417 DIXIE HWY","","LOUISVILLE","KY","40216","RETAIL-FOOD  10,000 SQ FT OR LESS","38.1815000","-85.8153000","2018-05-21 00:00:00","99","","SPEEDWAY #5043",""
"88830","1381002","PANERA BREAD","","1534 BARDSTOWN RD","","LOUISVILLE","KY","40205","FOOD SERVICE","38.1354000","-85.4230000","2018-05-18 00:00:00","94","A","PANERA BREAD",""
"91938","1381021","RHYTHM FOOD MART","","801 VALLEY COLLEGE DR","","LOUISVILLE","KY","40272","RETAIL-FOOD  10,000 SQ FT OR LESS","38.1172000","-85.8442000","2018-05-21 00:00:00","96","","RHYTHM FOOD MART",""
"32382","1381030","SPEEDWAY #9686","","6821 SOUTHSIDE AVE","","LOUISVILLE","KY","40214","RETAIL-FOOD  10,000 SQ FT OR LESS","38.1588000","-85.7643000","2018-05-21 00:00:00","96","A","SPEEDWAY #9686",""
"102322","1378959","888 GREAT WALL","","9464 BROWNSBORO RD","","LOUISVILLE","KY","40241","FOOD SERVICE","38.3079000","-85.5472000","2018-05-14 00:00:00","100","A","888 GREAT WALL",""
"92407","1378970","GAME","","2295 LEXINGTON RD","","LOUISVILLE","KY","40206","FOOD SERVICE","38.2459000","-85.7047000","2018-05-10 00:00:00","95","A","GAME",""
"94491","1378973","TACO LUCHADOR","","938 BAXTER AVE","","LOUISVILLE","KY","40204","FOOD SERVICE","38.2413000","-85.7251000","2018-05-11 00:00:00","93","A","TACO LUCHADOR",""
"81111","1378982","ALDI #36","","5109 DIXIE HWY","","LOUISVILLE","KY","40216","SUPERMARKET WITH PROCESSING","38.1678000","-85.8289000","2018-05-14 00:00:00","100","","ALDI #36",""
"75536","1379007","KROGER L-763","","520 N 35TH ST","","LOUISVILLE","KY","40212","RETAIL-FOOD  10,001 SQ FT OR OVER","38.2703000","-85.8054000","2018-05-14 00:00:00","97","A","KROGER L-763",""
"105109","1381056","VOA FREEDOM HOUSE #3","","1025 S 2ND ST","","LOUISVILLE","KY","40203","FOOD SERVICE","38.2434000","-85.7644000","2018-05-21 00:00:00","99","A","VOA FREEDOM HOUSE #3",""
"105112","1381062","BLACKBEARD EXPRESSO","","718 W MAIN ST","","LOUISVILLE","KY","40202","FOOD SERVICE","38.2570000","-85.7824000","2018-05-21 00:00:00","98","A","BLACKBEARD EXPRESSO",""
"33284","1381079","COURTYARD GRILL","","700 CENTRAL AVE","","LOUISVILLE","KY","40208","STATIONARY RESTRICTED CONCESSON","38.2042000","-85.7718000","2018-05-18 00:00:00","100","","COURTYARD GRILL",""
"57727","1381082","WINNER'S CIRCLE SUITE KITCHEN","","700 CENTRAL AVE","","LOUISVILLE","KY","40208","FOOD SERVICE","38.2042000","-85.7718000","2018-05-22 00:00:00","97","A","WINNER'S CIRCLE SUITE KITCHEN",""
"77107","1381297","COSTCO","","5020 NORTON HEALTHCARE BLVD","","LOUISVILLE","KY","40241","RETAIL-FOOD  10,001 SQ FT OR OVER","38.3170000","-85.5729000","2018-05-22 00:00:00","99","A","COSTCO",""
"89599","1381492","FRIENDLY STOP FOOD MART","","4502 CANE RUN RD","","LOUISVILLE","KY","40216","PRE-PACKAGED RETAIL","38.1953000","-85.8432000","2018-05-22 00:00:00","97","","FRIENDLY STOP FOOD MART",""
"70644","1381493","CVS #6203","","3997 S 7TH ST","","LOUISVILLE","KY","40216","PRE-PACKAGED RETAIL","38.1920000","-85.8072000","2018-05-22 00:00:00","100","","CVS #6203",""
"59759","1379531","MEIJER #162 GAS","","9901 DIXIE HWY","","LOUISVILLE","KY","40272","RETAIL-FOOD  10,000 SQ FT OR LESS","38.1119000","-85.8608000","2018-05-15 00:00:00","99","A","MEIJER #162 GAS",""
"34581","1379579","AUDUBON COUNTRY CLUB","","3265 ROBIN RD","","LOUISVILLE","KY","40213","FOOD SERVICE","38.1999000","-85.7289000","2018-05-15 00:00:00","97","A","AUDUBON COUNTRY CLUB",""
"76934","1379582","WING ZONE","","905 HESS LN","","LOUISVILLE","KY","40217","FOOD SERVICE","38.2053000","-85.7359000","2018-05-15 00:00:00","97","A","WING ZONE",""
"88819","1381548","BARRET BAR","","1012 BARRET AVE","","LOUISVILLE","KY","40204","FOOD SERVICE","38.1420000","-85.4345000","2018-05-22 00:00:00","100","A","BARRET BAR",""
"90848","1383902","BEAUTIFUL FACES","","8512 PRESTON HWY","","LOUISVILLE","KY","40219","FOOD SERVICE (DAY CARE / CHILD CARE CENTER","38.1291000","-85.6817000","2018-05-31 00:00:00","100","A","BEAUTIFUL FACES",""
"40991","1383904","SPEEDWAY #9783","","4900 OUTER LOOP","","LOUISVILLE","KY","40219","RETAIL-FOOD  10,000 SQ FT OR LESS","38.1373000",".0000000","2018-05-31 00:00:00","94","","SPEEDWAY #9783",""
"69072","1383906","AUNTIE ANNE'S","","4801 OUTER LOOP","","LOUISVILLE","KY","40219","FOOD SERVICE","38.1415000","-85.6708000","2018-05-31 00:00:00","97","A","AUNTIE ANNE'S",""
"100307","1383908","PICNIC","","11505 PARK RD","","LOUISVILLE","KY","40223","FOOD SERVICE","38.2657000","-85.5410000","2018-05-31 00:00:00","98","A","PICNIC",""
"78337","1384851","MOCKINGBIRD VALLEY SOCCER CLUB","","3000 MELLWOOD AVE","","LOUISVILLE","KY","40207","STATIONARY RESTRICTED CONCESSON","38.2738000","-85.6954000","2018-05-23 00:00:00","","","MOCKINGBIRD VALLEY SOCCER CLUB",""
"92904","1384940","DIXIE CHICKEN","","3947 DIXIE HWY","","LOUISVILLE","KY","40216","FOOD SERVICE","38.1930000","-85.8071000","2018-05-30 00:00:00","","","DIXIE CHICKEN",""
"99445","1387383","CHINA 1","","126 BRECKENRIDGE LN","","LOUISVILLE","KY","40207","FOOD SERVICE","38.2520000","-85.6551000","2018-06-13 00:00:00","96","A","CHINA 1",""
"101213","1387385","BEHAR CAFE","","282 EVANGELINE AVE","","LOUISVILLE","KY","40214","FOOD SERVICE","38.1601100","-85.7640700","2018-06-13 00:00:00","94","A","BEHAR CAFE",""
"78333","1387387","BEECHMONT YOUTH SPORTS","","5401 SOUTHSIDE DR","","LOUISVILLE","KY","40214","FOOD SERVICE","38.1702000","-85.7639000","2018-06-13 00:00:00","99","A","BEECHMONT YOUTH SPORTS",""
"103808","1387394","DOUGLASS BLVD CHRISTIAN CHURCH","","2005 DOUGLASS BLVD","","LOUISVILLE","KY","40205","CATERERS","38.2255000","-85.6939000","2018-06-13 00:00:00","100","A","DOUGLASS BLVD CHRISTIAN CHURCH",""
"94655","1380998","DIVERSICARE OF SENECA PLACE LLC","","3526 DUTCHMANS LN","","LOUISVILLE","KY","40205","FOOD SERVICE (HOSPITAL / NURSING HOME","38.2242000","-85.6529000","2018-05-18 00:00:00","94","A","DIVERSICARE OF SENECA PLACE LLC",""
"82602","1381059","DIXIE CHICKEN","","1785 W OAK ST","","LOUISVILLE","KY","40203","FOOD SERVICE","38.2374000","-85.7863000","2018-05-21 00:00:00","95","A","DIXIE CHICKEN",""
"33292","1381078","PADDOCK GRILL","","700 CENTRAL AVE","","LOUISVILLE","KY","40208","FOOD SERVICE","38.2042000","-85.7718000","2018-05-18 00:00:00","97","A","PADDOCK GRILL",""
"84446","1381223","LOU. METRO YOUTH CENTER C/O MICHELLE SHARP","","720 W JEFFERSON ST","","LOUISVILLE","KY","40202","CONFINEMENT FACILITY FOOD SERVICE","38.2544000","-85.7623000","2018-05-22 00:00:00","95","A","LOU. METRO YOUTH CENTER C/O MICHELLE SHARP",""
"98869","1381229","HOME RUN BURGER","","2723 S HURSTBOURNE PKWY","","LOUISVILLE","KY","40299","FOOD SERVICE",".0000000",".0000000","2018-05-22 00:00:00","97","A","HOME RUN BURGER",""
"96332","1385048","MI PREFERIDA","","8104 NATIONAL TURNPIKE","","LOUISVILLE","KY","40214","RETAIL-FOOD  10,000 SQ FT OR LESS","38.1336000","-85.7526000","2018-06-05 00:00:00","95","","MI PREFERIDA",""
"33403","1385049","BLUE LICK OPTIMIST","","4611 MUD LN","","LOUISVILLE","KY","40229","FOOD SERVICE","38.8920000","-85.6920000","2018-06-05 00:00:00","98","A","BLUE LICK OPTIMIST",""
"97755","1385057","STANDARD CLUB GOLF SHOP","","8208 STANDARD CLUB LN","","LOUISVILLE","KY","40241","STATIONARY RESTRICTED CONCESSON","38.2974000","-85.5977000","2018-06-05 00:00:00","100","","STANDARD CLUB GOLF SHOP",""
"101736","1385097","WW COUSINS","","900 DUPONT RD","","LOUISVILLE","KY","40207","FOOD SERVICE","38.2349000","-85.6399000","2018-06-05 00:00:00","93","A","WW COUSINS",""
"99883","1385099","HIBACHI BUFFET","","5372 DIXIE HWY","","LOUISVILLE","KY","40216","FOOD SERVICE","38.1567000","-85.8363000","2018-06-05 00:00:00","94","A","HIBACHI BUFFET",""
"72123","1385116","AUDUBON CC POOL SNACK BAR","","3265 ROBIN RD","","LOUISVILLE","KY","40213","PRE-PACKAGED RETAIL","38.1999000","-85.7289000","2018-06-05 00:00:00","98","A","AUDUBON CC POOL SNACK BAR",""
"91677","1387405","CRACKER BARREL","","11000 DIXIE HWY","","LOUISVILLE","KY","40272","RETAIL-FOOD  10,000 SQ FT OR LESS",".0000000",".0000000","2018-06-13 00:00:00","91","A","CRACKER BARREL",""
"91677","1387406","CRACKER BARREL","","11000 DIXIE HWY","","LOUISVILLE","KY","40272","RETAIL-FOOD  10,000 SQ FT OR LESS",".0000000",".0000000","2018-06-13 00:00:00","100","","CRACKER BARREL",""
"64221","1387410","PAPA JOHN'S #20","","5911 TIMBER RIDGE DR","","PROPSECT","KY","40059","FOOD SERVICE","38.3396000","-85.6208000","2018-06-13 00:00:00","99","A","PAPA JOHN'S #20",""
"90232","1387424","STARBUCKS","","2002 PAPA JOHNS BLVD","","LOUISVILLE","KY","40299","RETAIL-FOOD  10,000 SQ FT OR LESS","38.2130000","-85.5322000","2018-06-13 00:00:00","100","A","STARBUCKS",""
"32553","1387434","CAPTAIN D'S #3329","","3937 DIXIE HWY","","LOUISVILLE","KY","40217","FOOD SERVICE","38.1936000","-85.8067000","2018-06-13 00:00:00","91","A","CAPTAIN D'S #3329",""
"105371","1387437","CHAMPAGNERY","","1764 FRANKFORT AVE","","LOUISVILLE","KY","40206","FOOD SERVICE","38.2566000","-85.7169000","2018-06-01 00:00:00","100","","CHAMPAGNERY",""
"105373","1387468","DRAGON BREATH","","5000 SHELBYVILLE RD","","LOUISVILLE","KY","40207","FOOD SERVICE","38.2467000","-85.6233000","2018-06-06 00:00:00","100","","DRAGON BREATH",""
"53576","1389167","FAZOLI'S","","10307 DIXIE HWY","","LOUISVILLE","KY","40272","FOOD SERVICE","38.1050000","-85.8678000","2018-06-08 00:00:00","","","FAZOLI'S",""
"100004","1389179","CHIPOTLE","","420 S HURSTBOURNE PKWY","","LOUISVILLE","KY","40222","FOOD SERVICE","38.2405000","-85.5779000","2018-06-19 00:00:00","98","A","CHIPOTLE",""
"93247","1381287","SUPER USA #101","","2912 BROWNSBORO RD","","LOUISVILLE","KY","40206","RETAIL-FOOD  10,000 SQ FT OR LESS","38.2604000","-85.6874000","2018-05-21 00:00:00","90","A","SUPER USA #101",""
"33648","1381290","PANDA CHINA INC","","9543 US HWY 42","","PROSPECT","KY","40059","FOOD SERVICE","38.3444000","-85.6174000","2018-05-21 00:00:00","94","A","PANDA CHINA INC",""
"91978","1381291","BUFFALO WILD WINGS","","10206 WESTPORT RD","","LOUISVILLE","KY","40241","FOOD SERVICE","38.2921000","-85.3617000","2018-05-21 00:00:00","83","C","BUFFALO WILD WINGS",""
"102584","1381292","HALA SMOKE SHOP & GROCERY","","4102 MURPHY LN","","LOUISVILLE","KY","40241","PRE-PACKAGED RETAIL","38.3039000","-85.5339000","2018-05-21 00:00:00","98","","HALA SMOKE SHOP & GROCERY",""
"65171","1381293","RESIDENCE INN","","3500 SPRINGHURST COMMONS DR","","LOUISVILLE","KY","40241","RETAIL-FOOD  10,000 SQ FT OR LESS","38.2971000","-85.5614000","2018-05-22 00:00:00","100","A","RESIDENCE INN",""
"52942","1381295","BURGER KING #542","","3701 DIANN MARIE RD","","LOUISVILLE","KY","40241","FOOD SERVICE","38.2997000","-85.5426000","2018-05-22 00:00:00","100","A","BURGER KING #542",""
"77107","1381298","COSTCO","","5020 NORTON HEALTHCARE BLVD","","LOUISVILLE","KY","40241","RETAIL-FOOD  10,001 SQ FT OR OVER","38.3170000","-85.5729000","2018-05-22 00:00:00","100","","COSTCO",""
"90063","1385403","PRECIOUS MOMENTS PRESCHOOL ACADEMY","","4810 POPLAR PLACE DR","","LOUISVILLE","KY","40213","FOOD SERVICE (DAY CARE / CHILD CARE CENTER","38.1802000","-85.6944000","2018-06-06 00:00:00","100","A","PRECIOUS MOMENTS PRESCHOOL ACADEMY",""
"91775","1385407","FAIRDALE YOUTH BASEBALL CONCESSION","","709 FAIRDALE RD","","FAIRDALE","KY","40118","FOOD SERVICE","38.1064000","-85.7567000","2018-06-06 00:00:00","97","A","FAIRDALE YOUTH BASEBALL CONCESSION",""
"99182","1385416","LAS AMERICAS MEXICAN STORE","","3719 KLONDIKE LN","","LOUISVILLE","KY","40218","RETAIL-FOOD  10,000 SQ FT OR LESS","38.2101000","-85.6393000","2018-06-06 00:00:00","84","","LAS AMERICAS MEXICAN STORE",""
"54075","1385418","O'CHARLEY'S","","4404 DIXIE HWY","","LOUISVILLE","KY","40216","FOOD SERVICE","38.1834000","-85.8152000","2018-06-06 00:00:00","96","A","O'CHARLEY'S",""
"91086","1385419","BURGER KING #886","","3930 DIXIE HWY","","LOUISVILLE","KY","40216","FOOD SERVICE","38.1944000","-85.8070000","2018-06-06 00:00:00","93","A","BURGER KING #886",""
"58862","1387541","I.D.E.A.","","1386 S 6TH ST","","LOUISVILLE","KY","40208","FOOD SERVICE","38.2297000",".0000000","2018-06-13 00:00:00","100","A","I.D.E.A.",""
"100133","1381489","CUP OF JOY","","2507 BANK ST","","LOUISVILLE","KY","40212","FOOD SERVICE","38.2686000","-85.7884000","2018-05-22 00:00:00","96","A","CUP OF JOY",""
"30085","1381551","SPEEDWAY #9709","","4239 POPLAR LEVEL RD","","LOUISVILLE","KY","40213","RETAIL-FOOD  10,000 SQ FT OR LESS","38.1974000","-85.7077000","2018-05-22 00:00:00","97","","SPEEDWAY #9709",""
"68711","1381569","ARBY'S #7349","","2804 CRITTENDEN DR","","LOUISVILLE","KY","40209","FOOD SERVICE","38.2025000","-85.7512000","2018-05-22 00:00:00","92","A","ARBY'S #7349",""
"105177","1381614","FOREST SPRINGS SNACK SHACK","","3801 ROCK BAY DR","","LOUISVILLE","KY","40245","STATIONARY RESTRICTED CONCESSON","38.2930000","-85.5038000","2018-05-17 00:00:00","98","","FOREST SPRINGS SNACK SHACK",""
"100980","1381721","SHOP & GO","","3901 TAYLOR BLVD","","LOUISVILLE","KY","40215","RETAIL-FOOD  10,000 SQ FT OR LESS","38.1874000","-85.7831000","2018-05-23 00:00:00","95","A","SHOP & GO",""
"98780","1385620","KY FOOD MAXX","","800 E KENTUCKY ST","","LOUISVILLE","KY","40202","RETAIL-FOOD  10,000 SQ FT OR LESS",".0000000",".0000000","2018-06-06 00:00:00","96","A","KY FOOD MAXX",""
"34417","1389252","KROGER L-292","","7509 TERRY RD","","LOUISVILLE","KY","40258","RETAIL-FOOD  10,001 SQ FT OR OVER","38.1425000","-85.8702000","2018-06-19 00:00:00","96","A","KROGER L-292",""
"98534","1389254","ASIAN HOUSE","","9707 DIXIE HWY","","LOUISVILLE","KY","40272","FOOD SERVICE","38.1148000","-85.8604000","2018-06-19 00:00:00","85","C","ASIAN HOUSE",""
"70009","1381730","CRACKER BARREL #522","","10150 BROOKRIDGE VILLAGE BLVD","","LOUISVILLE","KY","40291","RETAIL-FOOD  10,000 SQ FT OR LESS","38.1445000","-85.5837000","2018-05-23 00:00:00","100","","CRACKER BARREL #522",""
"89673","1381737","DOUBLE DRAGON #5","","2600 W BROADWAY","","LOUISVILLE","KY","40211","FOOD SERVICE","38.2480000","-85.7956000","2018-05-23 00:00:00","92","A","DOUBLE DRAGON #5",""
"100132","1381785","NEW LEGACY","","1115 GARVIN PL","","LOUISVILLE","KY","40203","CATERERS","38.2368000","-85.7614000","2018-05-22 00:00:00","97","A","NEW LEGACY",""
"99028","1381787","TIM PAGE'S CORNER STORE","","2922 TAYLOR BLVD","","LOUISVILLE","KY","40208","RETAIL-FOOD  10,000 SQ FT OR LESS","38.2078000","-85.7750000","2018-05-22 00:00:00","99","","TIM PAGE'S CORNER STORE",""
"105199","1381919","MAYAN STREET FOOD","","514 BAXTER AVE","","LOUISVILLE","KY","40204","FOOD SERVICE","38.2470000","-85.7304000","2018-05-21 00:00:00","100","","MAYAN STREET FOOD",""
"95342","1385920","RUCKRIEGEL FIELD BASEBALL","","10707 OLD TAYLORSVILLE RD","","LOUISVILLE","KY","40299","STATIONARY RESTRICTED CONCESSON","38.1887000","-85.5535000","2018-06-07 00:00:00","98","","RUCKRIEGEL FIELD BASEBALL",""
"83668","1385921","SKYVIEW PARK","","2800 WATTERSON TRAIL","","LOUISVILLE","KY","40299","FOOD SERVICE","38.2049000","-85.5594000","2018-06-07 00:00:00","99","A","SKYVIEW PARK",""
"105431","1389529","HOPE PLACE","","5007 SOUTHSIDE DR","","LOUISVILLE","KY","40214","FOOD SERVICE","38.1741000","-85.7641000","2018-06-18 00:00:00","98","","HOPE PLACE",""
"36905","1378447","KFC Y052-042","","9487 WESTPORT RD","","LOUISVILLE","KY","40242","FOOD SERVICE","38.2867000","-85.5758000","2018-05-10 00:00:00","99","A","KFC Y052-042",""
"37633","1381999","SUBWAY","","6501 OLD SHEPHERDSVILLE RD","","LOUISVILLE","KY","40228","FOOD SERVICE","38.1550000","-85.6592000","2018-05-21 00:00:00","98","A","SUBWAY",""
"33646","1382123","DOMINO'S PIZZA #1432","","6803 SOUTHSIDE DR","","LOUISVILLE","KY","40214","FOOD SERVICE","38.1592000","-85.7645000","2018-05-24 00:00:00","94","A","DOMINO'S PIZZA #1432",""
"103992","1382125","MCDONALD'S","","520 N 22ND ST","","LOUISVILLE","KY","40203","FOOD SERVICE","38.2673000","-85.7836000","2018-05-24 00:00:00","95","A","MCDONALD'S",""
"68297","1382129","DOLLAR GENERAL #295","","2625 ROCKFORD LN","","LOUISVILLE","KY","40216","PRE-PACKAGED RETAIL","38.1784000",".0000000","2018-05-24 00:00:00","95","","DOLLAR GENERAL #295",""
"88055","1382159","DAIRY QUEEN","","9515 US HWY 42","","PROSPECT","KY","40059","FOOD SERVICE","38.3430000","-85.6172000","2018-05-18 00:00:00","","","DAIRY QUEEN",""
"101735","1386031","SUBWAY #11525","","4945 BROWNSBORO RD","","LOUISVILLE","KY","40222","FOOD SERVICE","38.2833000","-85.6298000","2018-06-06 00:00:00","","","SUBWAY #11525",""
"62735","1386100","OUTBACK STEAKHOUSE","","9498 BROWNSBORO RD","","LOUISVILLE","KY","40241","FOOD SERVICE","38.3068000","-85.5731000","2018-06-08 00:00:00","98","A","OUTBACK STEAKHOUSE",""
"105193","1386104","FOOD FOR A BETTER YOU","","9300 BLAIRWOOD RD","","LOUISVILLE","KY","40222","FOOD SERVICE","38.2263000","-85.5843000","2018-06-08 00:00:00","98","A","FOOD FOR A BETTER YOU",""
"105192","1386105","BLAIRWOOD GRILL","","9300 BLAIRWOOD RD","","LOUISVILLE","KY","40222","FOOD SERVICE","38.2263000","-85.5843000","2018-06-08 00:00:00","96","A","BLAIRWOOD GRILL",""
"84702","1386107","LIQUOR BARN","","1850 S HURSTBOURNE PKWY","","LOUISVILLE","KY","40220","RETAIL-FOOD  10,000 SQ FT OR LESS","38.2205000","-85.5838000","2018-06-08 00:00:00","100","A","LIQUOR BARN",""
"84702","1386108","LIQUOR BARN","","1850 S HURSTBOURNE PKWY","","LOUISVILLE","KY","40220","RETAIL-FOOD  10,000 SQ FT OR LESS","38.2205000","-85.5838000","2018-06-08 00:00:00","100","","LIQUOR BARN",""
"92917","1387963","HAPPY DRAGON","","12613 TAYLORSVILLE RD","","LOUISVILLE","KY","40299","FOOD SERVICE","38.1895000","-85.5190000","2018-06-14 00:00:00","95","A","HAPPY DRAGON",""
"33070","1387976","CAPTAIN'S QUARTERS","","5700 CAPTAINS QUARTERS RD","","HARRODS CREEK","KY","40027","FOOD SERVICE","38.3313000","-85.6426000","2018-06-14 00:00:00","95","A","CAPTAIN'S QUARTERS",""
"93157","1387979","PRESTON CROSSINGS SBARRO","","9700 PRESTON CROSSINGS BLVD","","LOUISVILLE","KY","40229","FOOD SERVICE","38.1083000","-85.6716000","2018-06-14 00:00:00","100","A","PRESTON CROSSINGS SBARRO",""
"100440","1389728","MCDONALD'S #4924","","3100 POPLAR LEVEL RD","","LOUISVILLE","KY","40219","FOOD SERVICE","38.2115000","-85.7209000","2018-06-13 00:00:00","","","MCDONALD'S #4924",""
"99674","1389768","VIETNAM ORIENTAL FOOD MARKET","","5019 S 3RD ST","","LOUISVILLE","KY","40214","RETAIL-FOOD  10,000 SQ FT OR LESS","38.1735000","-85.7670000","2018-05-23 00:00:00","","","VIETNAM ORIENTAL FOOD MARKET",""
"99674","1389770","VIETNAM ORIENTAL FOOD MARKET","","5019 S 3RD ST","","LOUISVILLE","KY","40214","RETAIL-FOOD  10,000 SQ FT OR LESS","38.1735000","-85.7670000","2018-06-07 00:00:00","","","VIETNAM ORIENTAL FOOD MARKET",""
"103167","1378568","VIRTUE","","103 W OAK ST","","LOUISVILLE","KY","40202","FOOD SERVICE","38.2348000","-85.7556000","2018-05-10 00:00:00","99","A","VIRTUE",""
"102016","1378570","PALACE THEATER","","625 S 4TH ST","","LOUISVILLE","KY","40202","FOOD SERVICE","38.2481000","-85.7576000","2018-05-10 00:00:00","97","A","PALACE THEATER",""
"35070","1378571","BODY SHOP","","421 W CHESTNUT ST","","LOUISVILLE","KY","40202","FOOD SERVICE","38.2493000","-85.7589000","2018-05-10 00:00:00","97","A","BODY SHOP",""
"93344","1378649","BORSALINO","","3825 BARDSTOWN RD","","LOUISVILLE","KY","40218","FOOD SERVICE","38.1960000","-85.6537000","2018-05-10 00:00:00","100","A","BORSALINO",""
"69072","1382298","AUNTIE ANNE'S","","4801 OUTER LOOP","","LOUISVILLE","KY","40219","FOOD SERVICE","38.1415000","-85.6708000","2018-05-25 00:00:00","92","C","AUNTIE ANNE'S",""
"59772","1382311","MEIJER #164 GAS","","10701 FISCHER PARK DR","","LOUISVILLE","KY","40241","RETAIL-FOOD  10,000 SQ FT OR LESS","38.2970000","-85.5537000","2018-05-25 00:00:00","100","A","MEIJER #164 GAS",""
"95809","1382313","IMPELLIZZERI'S","","4933 OLD BROWNSBORO RD","","LOUISVILLE","KY","40222","FOOD SERVICE","38.2673000","-85.6607000","2018-05-25 00:00:00","90","C","IMPELLIZZERI'S",""
"94977","1382315","DINO'S BAKERY","","4162 BARDSTOWN RD","","LOUISVILLE","KY","40218","RETAIL-FOOD  10,000 SQ FT OR LESS","38.1888000","-85.6430000","2018-05-24 00:00:00","96","","DINO'S BAKERY",""
"88065","1382316","CARE A LOT DAYCARE","","4701 FEGENBUSH LN","","LOUISVILLE","KY","40228","FOOD SERVICE (DAY CARE / CHILD CARE CENTER","38.1814000","-85.6373000","2018-05-24 00:00:00","100","A","CARE A LOT DAYCARE",""
"88826","1386132","THOROBRED LOUNGE","","3634 S 7TH ST","","LOUISVILLE","KY","40216","FOOD SERVICE","38.1974000","-86.7990000","2018-06-08 00:00:00","96","A","THOROBRED LOUNGE",""
"99540","1386140","ANOTHER PLACE SANDWICH SHOP","","119 S 7TH ST","","LOUISVILLE","KY","40202","FOOD SERVICE","38.2563000","-85.7615000","2018-06-08 00:00:00","93","A","ANOTHER PLACE SANDWICH SHOP",""
"78571","1386144","CHAMPS ROLLERDROME HURSTBOURNE","","9851 LAGRANGE RD","","LOUISVILLE","KY","40223","FOOD SERVICE","38.2717000","-85.5701000","2018-06-08 00:00:00","99","A","CHAMPS ROLLERDROME HURSTBOURNE",""
"88476","1386189","KNIGHTS OF COLUMBUS (ASSUMPTION COUNCIL #4473)","","4801 PROGRESS BLVD","","LOUISVILLE","KY","40218","FOOD SERVICE","38.1800000","-85.6523000","2018-06-10 00:00:00","100","A","KNIGHTS OF COLUMBUS (ASSUMPTION COUNCIL #4473)",""
"30242","1386218","CURTIS MARKET","","2720 DUNCAN ST","","LOUISVILLE","KY","40212","RETAIL-FOOD  10,000 SQ FT OR LESS","38.2636000","-85.7967000","2018-06-08 00:00:00","98","","CURTIS MARKET",""
